"eid","code","name","countrycode","statecode","metrocode","citycode","phoneprefix","type","lat","lon"
"ap/AAE","AAE","Les Salines Arpt","DZ","","","AAE","",2,36.83,7.81
"ap/AAF","AAF","Apalachicola Municipal Arpt","US","FL","","AAF","QHF",9,29.73,-85.03
"ap/AAG","AAG","Arapoti Arpt","BR","","","AAG","",9,-24.1,-49.78
"ap/AAH","AAH","Aachen Merzbruck Arpt","DE","","","AAH","QHF",2,50.91,5.76
"ap/AAL","AAL","Aalborg Arpt","DK","","","AAL","",2,57.09,9.84
"ap/AAM","AAM","Mala Mala Arpt","ZA","","","AAM","QHF",3,-24.8,31.53
"ap/AAN","AAN","Al Ain Arpt","AE","","","AAN","",2,24.26,55.61
"ap/AAQ","AAQ","Anapa Arpt","RU","","","AAQ","",2,44.9,37.31
"ap/AAR","AAR","Tirstrup Arpt","DK","","","AAR","",2,56.28,10.63
"ap/AAY","AAY","Al Ghaydah Arpt","YE","","","AAY","QHF",2,16.2,52.18
"ap/ABA","ABA","Abakan Arpt","RU","","","ABA","QHF",2,53.71,91.43
"ap/ABC","ABC","Los Llanos Arpt","ES","","","ABC","QHF",2,38.94,-1.86
"ap/ABD","ABD","Abadan Arpt","IR","","","ABD","QHF",9,30.36,48.23
"ap/ABE","ABE","Lehigh Valley Intl Arpt","US","PA","","ABE","",2,40.65,-75.43
"ap/ABI","ABI","Abilene Municipal Arpt","US","TX","","ABI","",2,32.42,-99.68
"ap/ABJ","ABJ","Felix Houphouet Boigny Arpt","CI","","","ABJ","",2,5.25,-3.93
"ap/ABL","ABL","Ambler Arpt","US","AK","","ABL","",2,67.08,-157.84
"ap/ABM","ABM","Bamaga Arpt","AU","QL","","ABM","QHF",2,-10.86,142.4
"ap/ABQ","ABQ","Albuquerque Intl Arpt","US","NM","","ABQ","",2,35.04,-106.61
"ap/ABR","ABR","Aberdeen Arpt","US","SD","","ABR","",2,45.45,-98.42
"ap/ABS","ABS","Abu Simbel Arpt","EG","","","ABS","QHF",2,22.37,31.61
"ap/ABT","ABT","Al Aqiq","SA","","","ABT","QHF",2,20.3,41.63
"ap/ABV","ABV","Abuja Intl","NG","","","ABV","",2,9,7.26
"ap/ABX","ABX","Albury Airport","AU","NS","","ABX","QHF",2,-36.06,146.95
"ap/ABY","ABY","Dougherty Cty Arpt","US","GA","","ABY","",2,31.53,-84.2
"ap/ABZ","ABZ","Dyce Airport","GB","","","ABZ","",2,57.2,-2.2
"ap/ACA","ACA","Alvarez Intl Arpt","MX","","","ACA","",2,16.76,-99.75
"ap/ACC","ACC","Kotoka Airport","GH","","","ACC","",2,5.6,-0.16
"ap/ACE","ACE","Lanzarote Airport","ES","","","ACE","",2,28.95,-13.6
"ap/ACH","ACH","Altenrhein Arpt","CH","","","ACH","",2,47.48,9.55
"ap/ACI","ACI","The Blaye Arpt","GB","","","ACI","",2,49.7,-2.2
"ap/ACK","ACK","Nantucket Memorial","US","MA","","ACK","",2,41.26,-70.06
"ap/ACO","ACO","Ascona Arpt","CH","","","ACO","QHF",2,46.15,8.76
"ap/ACT","ACT","Madison Cooper Arpt","US","TX","","ACT","",2,31.63,-97.07
"ap/ACV","ACV","Arcata Eureka Arpt","US","CA","","ACV","",2,40.97,-124.1
"ap/ACX","ACX","Xingyi Arpt","CN","","","ACX","QHF",3,25.08,104.95
"ap/ACY","ACY","Pomona Field","US","NJ","","AIY","",2,39.45,-74.57
"ap/ADA","ADA","Adana Airport","TR","","","ADA","",2,36.98,35.28
"ap/ADB","ADB","Adnan Menderes Airport","TR","","","IZM","",2,38.29,27.15
"ap/ADD","ADD","Bole Airport","ET","","","ADD","",2,9,38.78
"ap/ADE","ADE","Yemen Intl Arpt","YE","","","ADE","",2,12.83,45.03
"ap/ADG","ADG","Lenawee County Arpt","US","MI","","ADG","",9,41.86,-84.07
"ap/ADJ","ADJ","Civil Marka Arpt","JO","","","AMM","QHF",2,31.96,35.98
"ap/ADK","ADK","Adak Island Ns","US","AK","","ADK","QHF",2,51.87,-176.64
"ap/ADL","ADL","Adelaide Arpt","AU","SA","","ADL","QHF",2,-34.94,138.53
"ap/ADM","ADM","Ardmore Municipal Arpt","US","OK","","ADM","",9,34.3,-97.01
"ap/ADQ","ADQ","Kodiak Arpt","US","AK","","ADQ","",2,57.75,-152.48
"ap/ADS","ADS","Addison Arpt","US","TX","","DFW","",9,32.96,-96.83
"ap/ADT","ADT","Ada Municipal Arpt","US","OK","","ADT","",9,34.8,-96.66
"ap/ADU","ADU","Ardabil Arpt","IR","","","ADU","QHF",3,38.25,48.3
"ap/ADW","ADW","Andrews Air Force Base","US","MD","","ADW","",9,38.8,-76.91
"ap/ADX","ADX","Leuchars Arpt","GB","","","ADX","QHF",2,56.36,-2.86
"ap/ADZ","ADZ","San Andres Island Arpt","CO","","","ADZ","",2,12.58,-81.7
"ap/AEI","AEI","Algeciras Arpt","ES","","","AEI","",9,36.18,-5.45
"ap/AEL","AEL","Albert Lea Arpt","US","MN","","AEL","",9,43.68,-93.36
"ap/AEP","AEP","Jorge Newbery","AR","","BUE","BUE","",2,-34.56,-58.36
"ap/AER","AER","Alder Sochi Arpt","RU","","","AER","",2,43.45,39.93
"ap/AES","AES","Vigra Airport","NO","","","AES","",2,62.56,6.11
"ap/AEX","AEX","Alexandria Intl Arpt","US","LA","","AEX","",2,31.32,-92.54
"ap/AEY","AEY","Akureyri","IS","","","AEY","",2,65.65,-18.05
"ap/AFA","AFA","San Rafael Arpt","AR","","","AFA","",9,-34.58,-68.4
"ap/AFK","AFK","Kondavattavan Tank Arpt","LK","","","AFK","QHF",9,7.29,81.63
"ap/AFL","AFL","Alta Floresta Arpt","BR","","","AFL","",2,-9.87,-56.1
"ap/AGA","AGA","Agadir Almassira Arpt","MA","","","AGA","",2,30.38,-9.55
"ap/AGB","AGB","Muehlhausen Arpt","DE","","","AGB","QHF",2,48.42,10.93
"ap/AGC","AGC","Allegheny Cty Arpt","US","PA","","PIT","",9,40.35,-79.93
"ap/AGE","AGE","Flugplatz Arpt","DE","","","AGE","",9,53.78,7.91
"ap/AGF","AGF","La Garenne Arpt","FR","","","AGF","",2,44.2,0.63
"ap/AGH","AGH","Angelholm Helsingborg Arpt","SE","","","AGH","",2,56.29,12.85
"ap/AGN","AGN","Angoon Arpt","US","AK","","AGN","QHF",3,57.5,-134.58
"ap/AGO","AGO","Magnolia Municipal","US","AR","","AGO","",9,33.22,-93.21
"ap/AGP","AGP","Malaga Arpt","ES","","","AGP","",2,36.67,-4.48
"ap/AGR","AGR","Kheria Arpt","IN","","","AGR","",2,27.15,77.96
"ap/AGS","AGS","Bush Field","US","GA","","AGS","",2,33.37,-81.97
"ap/AGT","AGT","Alejo Garcia Arpt","PY","","","AGT","QHF",2,-25.45,-54.84
"ap/AGU","AGU","Aguascalientes Municipal Arpt","MX","","","AGU","",2,21.88,-102.3
"ap/AHB","AHB","Abha Airport","SA","","","AHB","",2,18.23,42.65
"ap/AHI","AHI","Amahai Airport","ID","","","AHI","",9,-3.33,128.91
"ap/AHN","AHN","Athens Municipal","US","GA","","AHN","",2,33.95,-83.46
"ap/AHO","AHO","Fertilia Arpt","IT","","","AHO","",2,40.62,8.28
"ap/AHU","AHU","Charif Al Idrissi Arpt","MA","","","AHU","",2,35.25,-3.93
"ap/AIA","AIA","Alliance Municipal","US","NE","","AIA","",2,42.06,-102.81
"ap/AID","AID","Anderson Municipal Arpt","US","IN","","AID","",9,40.08,-85.83
"ap/AIK","AIK","Aiken Municipal Arpt","US","SC","","AIK","",9,33.64,-81.68
"ap/AIN","AIN","Wainwright Municipal Arpt","US","AK","","AIN","",2,70.63,-160.04
"ap/AIT","AIT","Aitutaki Arpt","CK","","","AIT","",2,-18.85,-159.75
"ap/AIY","AIY","Bader Field","US","NJ","","AIY","",9,39.36,-74.45
"ap/AIZ","AIZ","Lee C Fine Memorial","US","MO","","AIZ","",9,38.09,-92.55
"ap/AJA","AJA","Campo Dell Oro Arpt","FR","","","AJA","",2,41.89,8.61
"ap/AJR","AJR","Arvidsjaur Arpt","SE","","","AJR","",2,65.59,19.28
"ap/AJU","AJU","Santa Maria Arpt","BR","","","AJU","",2,-10.91,-37.06
"ap/AKJ","AKJ","Asahikawa Arpt","JP","","","AKJ","",2,43.67,142.44
"ap/AKL","AKL","Auckland Arpt","NZ","","","AKL","QHF",2,-37,174.78
"ap/AKN","AKN","King Salmon Arpt","US","AK","","AKN","",2,58.67,-156.64
"ap/AKV","AKV","Akulivik Arpt","CA","PQ","","AKV","",3,60.81,-78.15
"ap/AKX","AKX","Aqtobe Arpt","KZ","","","AKX","",3,50.25,57.21
"ap/ALA","ALA","Almaty Arpt","KZ","","","ALA","",2,43.35,77.03
"ap/ALB","ALB","Albany Cty Arpt","US","NY","","ALB","",2,42.74,-73.8
"ap/ALC","ALC","Alicante Arpt","ES","","","ALC","",2,38.28,-0.55
"ap/ALE","ALE","Alpine Aprt","US","TX","","ALE","",9,30.38,-103.68
"ap/ALF","ALF","Elvebakken Arpt","NO","","","ALF","",2,69.98,23.36
"ap/ALG","ALG","Houari Boumedienne Arpt","DZ","","","ALG","",2,36.7,3.21
"ap/ALH","ALH","Albany Airport","AU","WA","","ALH","QHF",2,-35,117.87
"ap/ALJ","ALJ","Kortdoorn Arpt","ZA","","","ALJ","",2,-29.66,16.5
"ap/ALL","ALL","Albenga Arpt","IT","","","ALL","QHF",9,44.04,8.12
"ap/ALM","ALM","Alamogordo Municipal","US","NM","","ALM","",2,32.84,-105.99
"ap/ALO","ALO","Livingston Betsworth Fld","US","IA","","ALO","",2,42.55,-92.39
"ap/ALP","ALP","Nejrab Arpt","SY","","","ALP","QHF",2,36.18,37.22
"ap/ALS","ALS","Alamosa Municipal","US","CO","","ALS","",2,37.44,-105.86
"ap/ALV","ALV","Andorra La Vella Hlpt","AD","","","ALV","",8,42.51,1.53
"ap/ALW","ALW","Walla Walla City County","US","WA","","ALW","",2,46.09,-118.28
"ap/ALX","ALX","Thomas C Russell Field","US","AL","","ALX","",9,32.91,-85.96
"ap/ALY","ALY","El Nouzha Arpt","EG","","","ALY","",2,31.18,29.94
"ap/AMA","AMA","Amarillo Intl Arpt","US","TX","","AMA","",2,35.23,-101.7
"ap/AMD","AMD","Ahmedabad Arpt","IN","","","AMD","QHF",2,23.06,72.62
"ap/AMI","AMI","Selaparang Airport","ID","","","AMI","QHF",2,-8.56,116.09
"ap/AMK","AMK","Animas Airpark","US","CO","","DRO","QHF",9,37.21,-107.86
"ap/AMM","AMM","Queen Alia Intl Arpt","JO","","","AMM","",2,31.95,36.29
"ap/AMQ","AMQ","Pattimura Arpt","ID","","","AMQ","QHF",2,-3.71,128.2
"ap/AMS","AMS","Schiphol Arpt","NL","","","AMS","",2,52.31,4.76
"ap/AMW","AMW","Ames Minicipal Arpt","US","IA","","AMW","",9,41.99,-93.62
"ap/ANB","ANB","Anniston Municipal Arpt","US","AL","","ANB","",9,33.58,-85.85
"ap/ANC","ANC","Anchorage Intl Arpt","US","AK","","ANC","",2,61.17,-149.97
"ap/AND","AND","Anderson Arpt","US","SC","","AND","",9,34.5,-82.65
"ap/ANE","ANE","Marce Arpt","FR","","","ANE","",2,47.46,-0.55
"ap/ANF","ANF","Cerro Moreno Arpt","CL","","","ANF","QHF",2,-23.43,-70.44
"ap/ANG","ANG","Brie Champniers","FR","","","ANG","",2,45.66,0.2
"ap/ANI","ANI","Aniak Arpt","US","AK","","ANI","",2,61.58,-159.53
"ap/ANK","ANK","Etimesgut Arpt","TR","","","ANK","",9,39.95,32.82
"ap/ANP","ANP","Lee Annapolis Arpt","US","MD","","ANP","",9,38.94,-76.56
"ap/ANR","ANR","Brussels North","BE","","","BRU","QHF",2,51.19,4.45
"ap/ANU","ANU","V C Bird Intl Arpt","AG","","","ANU","",2,17.14,-61.77
"ap/ANW","ANW","Ainsworth Minicipal Arpt","US","NE","","ANW","",9,42.71,-99.99
"ap/ANX","ANX","Andenes Arpt","NO","","","ANX","",2,69.31,16.11
"ap/AOC","AOC","Altenburg Nobitz Arpt","DE","","","AOC","",9,50.96,12.5
"ap/AOH","AOH","Allen County Arpt","US","OH","","AOH","",9,40.7,-84.02
"ap/AOI","AOI","Falconara Arpt","IT","","","AOI","",2,43.62,13.36
"ap/AOJ","AOJ","Aomori Arpt","JP","","","AOJ","",2,40.73,140.7
"ap/AOK","AOK","Karpathos Arpt","GR","","","AOK","",2,35.42,27.14
"ap/AOL","AOL","Paso De Los Libres Arpt","AR","","","AOL","",9,-29.69,-57.14
"ap/AOO","AOO","Blair Cty Arpt","US","PA","","AOO","",2,40.29,-78.32
"ap/AOR","AOR","Sultan Abdul Hamlin Arpt","MY","","","AOR","QHF",2,6.19,100.4
"ap/AOT","AOT","Corrado Gex Arpt","IT","","","AOT","QHF",2,45.73,7.36
"ap/APA","APA","Centennial Arpt","US","CO","","DEN","",9,39.57,-104.84
"ap/APC","APC","Napa Cty Arpt","US","CA","","APC","",9,38.21,-122.28
"ap/APF","APF","Naples Municipal","US","FL","","APF","",2,26.14,-81.77
"ap/APG","APG","Phillips Army Air Field","US","MD","","BWI","",9,39.5,-76.2
"ap/APL","APL","Nampula Arpt","MZ","","","APL","QHF",2,-15.1,39.28
"ap/APN","APN","Phelps Collins Arpt","US","MI","","APN","",2,45.07,-83.56
"ap/APO","APO","Apartado Arpt","CO","","","APO","",2,7.03,-77.2
"ap/APS","APS","Anapolis Arpt","BR","","","APS","",9,-16.33,-48.96
"ap/APW","APW","Apia Airport","WS","","APW","APW","",2,-13.83,-172
"ap/AQA","AQA","Araraquara Arpt","BR","","","AQA","QHF",9,-21.78,-48.16
"ap/AQG","AQG","Anqing Arpt","CN","","","AQG","QHF",9,30.51,117.03
"ap/AQI","AQI","Qaisumah Arpt","SA","","","AQI","QHF",2,28.32,46.13
"ap/AQJ","AQJ","Aqaba Airport","JO","","","AQJ","",2,29.61,35.01
"ap/AQP","AQP","Rodriguez Ballon Arpt","PE","","","AQP","",2,-16.4,-71.55
"ap/ARB","ARB","Ann Arbor Municipal","US","MI","","ARB","",9,42.22,-83.74
"ap/ARH","ARH","Arkhangelsk Arpt","RU","","","ARH","",2,64.56,40.53
"ap/ARI","ARI","Chacalluta Arpt","CL","","","ARI","",2,-18.34,-70.33
"ap/ARK","ARK","Arusha Arpt","TZ","","","ARK","",2,-3.36,36.68
"ap/ARM","ARM","Armidale Arpt","AU","NS","","ARM","QHF",2,-30.53,151.61
"ap/ARN","ARN","Arlanda Arpt","SE","","","STO","QHF",2,59.64,17.93
"ap/ART","ART","Watertown Arpt","US","NY","","ART","",2,43.99,-76.02
"ap/ARU","ARU","Aracatuba Arpt","BR","","","ARU","QHF",2,-21.14,-50.42
"ap/ARV","ARV","Noble F Lee Memorial Field","US","WI","","ARV","",2,45.91,-89.73
"ap/ARW","ARW","Arad Arpt","RO","","","ARW","QHF",2,46.17,21.26
"ap/ARY","ARY","Ararat Arpt","AU","VI","","ARY","QHF",9,-37.31,142.99
"ap/ASB","ASB","Ashgabat Arpt","TM","","","ASB","QHF",2,37.98,58.36
"ap/ASD","ASD","Andros Town Arpt","BS","","","ASD","",2,24.69,-77.79
"ap/ASE","ASE","Pitkin Cty Arptt Sardy Fld","US","CO","","ASE","",2,39.21,-106.91
"ap/ASF","ASF","Astrakhan Arpt","RU","","","ASF","",2,46.35,48.05
"ap/ASH","ASH","Boire Field Arpt","US","NH","","ASH","",9,42.78,-71.51
"ap/ASJ","ASJ","Amami O Shima Arpt","JP","","","ASJ","QHF",2,28.41,129.69
"ap/ASK","ASK","Yamoussoukro Arpt","CI","","","ASK","",9,6.9,-5.36
"ap/ASL","ASL","Harrison County Arpt","US","TX","","ASL","",9,32.52,-94.3
"ap/ASM","ASM","Asmara Intl Arpt","ER","","","ASM","QHF",2,15.29,38.91
"ap/ASP","ASP","Alice Springs Arpt","AU","NT","","ASP","QHF",2,-23.8,133.9
"ap/ASR","ASR","Kayseri Arpt","TR","","","ASR","",2,38.7,35.5
"ap/AST","AST","Astoria Arpt","US","OR","","AST","QHF",2,46.15,-123.88
"ap/ASU","ASU","Salvio Pettirosse Arpt","PY","","","ASU","",2,-25.16,-57.41
"ap/ASW","ASW","Daraw Arpt","EG","","","ASW","",2,23.96,32.78
"ap/ATC","ATC","Arthurs Town Arpt","BS","","","ATC","",2,24.63,-75.7
"ap/ATH","ATH","Eleftherios Venizelos Intl Arpt","GR","","","ATH","QHF",2,37.93,23.93
"ap/ATI","ATI","Artigas Arpt","UY","","","ATI","QHF",9,-30.38,-56.5
"ap/ATL","ATL","Hartsfield Jackson Intl Arpt","US","GA","","ATL","QHF",2,33.63,-84.44
"ap/ATM","ATM","Altamira Arpt","BR","","","ATM","",2,-3.2,-52.21
"ap/ATO","ATO","Ohio University Arpt","US","OH","","ATO","",9,39.21,-82.22
"ap/ATQ","ATQ","Raja Sansi Arpt","IN","","","ATQ","QHF",3,31.7,74.79
"ap/ATR","ATR","Mouakchott Arpt","MR","","","ATR","QHF",2,0,0
"ap/ATW","ATW","Outagamie Cty Arpt","US","WI","","ATW","",2,44.25,-88.51
"ap/ATY","ATY","Watertown Municipal","US","SD","","ATY","",2,44.92,-97.16
"ap/AUA","AUA","Reina Beatrix Arpt","AW","","","AUA","",2,12.5,-70.01
"ap/AUG","AUG","Maine State Arpt","US","ME","","AUG","",2,44.31,-69.79
"ap/AUH","AUH","Dhabi Intl Arpt","AE","","","AUH","",2,24.43,54.65
"ap/AUO","AUO","Auburn Opelika","US","AL","","AUO","",9,32.61,-85.43
"ap/AUQ","AUQ","Atuona Arpt","PF","","","AUQ","",2,-9.8,-139.03
"ap/AUR","AUR","Tronquieres Arpt","FR","","","AUR","QHF",2,44.89,2.41
"ap/AUS","AUS","Bergstrom Intl Arpt","US","TX","","AUS","",2,30.2,-97.66
"ap/AUU","AUU","Aurukin Arpt","AU","QL","","AUU","QHF",2,-13.35,141.71
"ap/AUW","AUW","Wausau Municipal Arpt","US","WI","","AUW","",9,44.91,-89.61
"ap/AUX","AUX","Araguaina Arpt","BR","","","AUX","",2,-7.2,-48.2
"ap/AUZ","AUZ","Aurora Municipal Arpt","US","IL","","AUZ","",9,41.76,-88.45
"ap/AVI","AVI","Maximo Gomez Arpt","CU","","","AVI","",2,22.02,-78.79
"ap/AVL","AVL","Asheville Municipal Arpt","US","NC","","AVL","",2,35.43,-82.53
"ap/AVN","AVN","Avignon Caumont Arpt","FR","","","AVN","",2,43.9,4.9
"ap/AVP","AVP","Wilkes Barre Scranton Intl Arpt","US","PA","","AVP","",2,41.33,-75.72
"ap/AVV","AVV","Melbourne Avalon Arpt","AU","VI","","MEL","QHF",3,-38.03,144.46
"ap/AWM","AWM","West Memphis Municipal Arpt","US","TN","","MEM","QHF",2,35.13,-90.23
"ap/AXA","AXA","Wallblake Municipal","AI","","","AXA","",2,18.21,-63.05
"ap/AXD","AXD","Dhmokritos Arpt","GR","","","AXD","QHF",2,40.85,25.95
"ap/AXM","AXM","El Eden Arpt","CO","","","AXM","QHF",2,4.45,-75.76
"ap/AXN","AXN","Alexandria Airport","US","MN","","AXN","",9,45.86,-95.39
"ap/AXS","AXS","Altus Municipal Arpt","US","OK","","LTS","",9,34.69,-99.33
"ap/AXT","AXT","Akita Airport","JP","","","AXT","",2,39.61,140.21
"ap/AXV","AXV","Neil Armstrong Arpt","US","OH","","AXV","",9,40.49,-84.29
"ap/AYP","AYP","Yanamilla Arpt","PE","","","AYP","QHF",2,-13.19,-74.24
"ap/AYQ","AYQ","Connellan Arpt","AU","NT","","AYQ","QHF",2,-25.18,130.97
"ap/AYR","AYR","Ayr Arpt","AU","QL","","AYR","QHF",9,-19.59,147.32
"ap/AYS","AYS","Ware County Arpt","US","GA","","AYS","",9,31.25,-82.4
"ap/AYT","AYT","Antalya Airport","TR","","","AYT","QHF",2,36.9,30.79
"ap/AZA","AZA","Williams Gateway Arpt","US","AZ","","PHX","QHF",3,33.31,-111.67
"ap/AZD","AZD","Yazd Arpt","IR","","","AZD","QHF",2,31.89,54.28
"ap/AZG","AZG","Apatzingan Arpt","MX","","","AZG","",9,19.08,-102.38
"ap/AZO","AZO","Kalamazoo Cty Arpt","US","MI","","AZO","",2,42.23,-85.55
"ap/BAD","BAD","Barksdale Air Force Base","US","LA","","SHV","QHF",9,32.5,-93.66
"ap/BAG","BAG","Loakan Arpt","PH","","","BAG","",2,16.37,120.62
"ap/BAH","BAH","Bahrain Intl Arpt","BH","","","BAH","QHF",2,26.27,50.63
"ap/BAQ","BAQ","E Cortissoz Arpt","CO","","","BAQ","",2,10.88,-74.78
"ap/BAS","BAS","Balalae Arpt","SB","","","BAS","QHF",2,-7.98,155.9
"ap/BAT","BAT","Barretos Arpt","BR","","","BAT","QHF",9,-20.58,-48.59
"ap/BAU","BAU","Bauru Arpt","BR","","","BAU","QHF",2,-22.34,-49.05
"ap/BAV","BAV","Baotou Arpt","CN","","","BAV","QHF",2,40.66,109.98
"ap/BAY","BAY","Baia Mare Arpt","RO","","","BAY","QHF",2,47.62,23.46
"ap/BBA","BBA","Teniente Vidal Airport","CL","","","BBA","",2,-45.91,-71.69
"ap/BBH","BBH","Barth Arpt","DE","","","BBH","",9,54.33,12.7
"ap/BBI","BBI","Bhubaneswar Arpt","IN","","","BBI","",2,20.23,85.81
"ap/BBJ","BBJ","Bitburg Air Base","DE","","","BBJ","",9,49.96,6.53
"ap/BBK","BBK","Kasane Arpt","BW","","","BBK","",2,-17.83,25.16
"ap/BBN","BBN","Bario Arpt","MY","","","BBN","QHF",3,3.68,115.46
"ap/BBR","BBR","Baillif Arpt","GP","","","BBR","",9,16,61.73
"ap/BBU","BBU","Baneasa Airport","RO","","BUH","BUH","",2,44.39,26.1
"ap/BBW","BBW","Broken Bow Municipal","US","NE","","BBW","",9,41.46,-99.63
"ap/BCB","BCB","Virginia Tech Arpt","US","VA","","BCB","",9,37.2,-80.4
"ap/BCD","BCD","Bacolod Arpt","PH","","","BCD","",2,10.64,122.92
"ap/BCE","BCE","Bryce Arpt","US","UT","","BCE","",9,37.7,-112.15
"ap/BCH","BCH","English Madeira Arpt","TL","","","BCH","",9,-8.48,126.4
"ap/BCI","BCI","Barcaldine Arpt","AU","QL","","BCI","QHF",2,-23.55,145.3
"ap/BCM","BCM","Bacau Arpt","RO","","","BCM","QHF",2,46.59,26.88
"ap/BCN","BCN","Barcelona Arpt","ES","","","BCN","",2,41.3,2.08
"ap/BCT","BCT","Boca Raton Public","US","FL","","FLL","",9,26.36,-80.11
"ap/BDA","BDA","Bermuda International","BM","","","BDA","",2,32.36,-64.68
"ap/BDB","BDB","Bundaberg Arpt","AU","QL","","BDB","QHF",2,-24.86,152.35
"ap/BDD","BDD","Badu Island Arpt","AU","QL","","BDD","QHF",2,-10.11,142.13
"ap/BDJ","BDJ","Sjamsudin Noor Arpt","ID","","","BDJ","QHF",2,-3.44,114.75
"ap/BDL","BDL","Bradley Intl Arpt","US","CT","","HFD","",2,41.93,-72.69
"ap/BDO","BDO","Husein Sastranegara Arpt","ID","","","BDO","QHF",2,-6.9,107.57
"ap/BDQ","BDQ","Vadodara Arpt","IN","","","BDQ","QHF",2,22.32,73.22
"ap/BDR","BDR","Sikorsky Memorial Arpt","US","CT","","BDR","",2,41.16,-73.12
"ap/BDS","BDS","Papola Casale Arpt","IT","","","BDS","QHF",2,40.65,17.95
"ap/BDU","BDU","Bardufoss Arpt","NO","","","BDU","",2,69.03,18.61
"ap/BEB","BEB","Benbecula Arpt","GB","","","BEB","",2,57.48,-7.36
"ap/BED","BED","Bedford Arpt","US","MA","","BED","",2,42.46,-71.28
"ap/BEG","BEG","Belgrade Beograd Arpt","RS","","","BEG","QHF",2,44.81,20.31
"ap/BEH","BEH","Ross Field","US","MI","","BEH","",9,42.12,-86.42
"ap/BEL","BEL","Val De Cans Arpt","BR","","","BEL","",2,-1.38,-48.47
"ap/BEN","BEN","Benina Intl Arpt","LY","","","BEN","QHF",2,32.09,20.27
"ap/BEO","BEO","Belmont Airport","AU","NS","","NTL","QHF",2,-33.03,151.66
"ap/BEQ","BEQ","Honington Arpt","GB","","","BEQ","",9,52.35,0.76
"ap/BES","BES","Guipavas Arpt","FR","","","BES","",2,48.44,-4.42
"ap/BET","BET","Bethel Airport","US","AK","","BET","",2,60.78,-161.83
"ap/BEU","BEU","Bedourie Arpt","AU","QL","","BEU","QHF",2,-24.33,39.36
"ap/BEW","BEW","Beira Arpt","MZ","","","BEW","QHF",2,-19.79,34.91
"ap/BEY","BEY","Beirut Intl Arpt","LB","","","BEY","",2,33.81,35.48
"ap/BEZ","BEZ","Beru Arpt","KI","","","BEZ","QHF",9,-1.33,176
"ap/BFD","BFD","Bradford Regional Arpt","US","PA","","BFD","",2,41.79,-78.64
"ap/BFE","BFE","Bielefeld Arpt","DE","","","BFE","QHF",2,51.96,8.54
"ap/BFF","BFF","Scottsbluff Municipal","US","NE","","BFF","",2,41.75,-103.59
"ap/BFG","BFG","Bullfrog Basin Arpt","US","UT","","BFG","QHF",9,37.55,-110.7
"ap/BFI","BFI","Seattle Boeing Field","US","WA","QSE","SEA","",2,47.53,-122.3
"ap/BFJ","BFJ","Ba Arpt","FJ","","","BFJ","",9,-17.55,177.68
"ap/BFL","BFL","Meadows Field","US","CA","","BFL","",2,35.42,-119.04
"ap/BFN","BFN","Bloemfontein International","ZA","","","BFN","",2,-29.1,26.3
"ap/BFP","BFP","Beaver Falls Arpt","US","PA","","BFP","",9,40.77,-80.39
"ap/BFR","BFR","Virgil I Grissom Municipal","US","IN","","BFR","",9,38.83,-86.5
"ap/BFS","BFS","Belfast Intl Arpt","GB","","","BFS","",2,54.65,-6.22
"ap/BFT","BFT","Beaufort County Arpt","US","SC","","BFT","",9,32.41,-80.63
"ap/BFV","BFV","Buri Ram Arpt","TH","","","BFV","QHF",2,15.23,103.25
"ap/BGA","BGA","Palo Negro Arpt","CO","","","BGA","",2,7.12,-73.18
"ap/BGF","BGF","Bangui Airport","CF","","","BGF","QHF",2,4.39,18.52
"ap/BGI","BGI","Grantley Adams Intl Arpt","BB","","","BGI","",2,13.07,-59.49
"ap/BGM","BGM","Edwin A Link Field","US","NY","","BGM","",2,42.2,-75.98
"ap/BGO","BGO","Flesland Airport","NO","","","BGO","",2,60.3,5.21
"ap/BGR","BGR","Bangor Intl Arpt","US","ME","","BGR","",2,44.8,-68.81
"ap/BGV","BGV","Bento Goncalves Arpt","BR","","","BGV","",9,-29.16,-51.51
"ap/BGW","BGW","Al Muthana Arpt","IQ","","","BGW","QHF",9,33.25,44.22
"ap/BGY","BGY","Orio Al Serio Arpt","IT","","MIL","BGY","",2,45.66,9.7
"ap/BHB","BHB","Hancock County","US","ME","","BHB","",2,44.45,-68.36
"ap/BHD","BHD","Belfast City Arpt","GB","","","BFS","",2,54.61,-5.87
"ap/BHE","BHE","Woodbourne Arpt","NZ","","","BHE","",2,-41.51,173.95
"ap/BHI","BHI","Commandante Airport","AR","","","BHI","",2,-38.71,-62.18
"ap/BHJ","BHJ","Rudra Mata Arpt","IN","","","BHJ","",2,23.28,69.66
"ap/BHK","BHK","Bukhara Arpt","UZ","","","BHK","",2,39.76,64.48
"ap/BHL","BHL","Bahia De Los Angeles Arpt","MX","","","BHL","",9,28.95,-113.55
"ap/BHM","BHM","Birmingham International Arpt","US","AL","","BHM","QHF",2,33.56,-86.74
"ap/BHO","BHO","Bhopal Arpt","IN","","","BHO","",2,23,77
"ap/BHQ","BHQ","Broken Hill Arpt","AU","NS","","BHQ","QHF",2,-32,141.46
"ap/BHS","BHS","Raglan Airport","AU","NS","","BHS","QHF",2,-33.41,149.58
"ap/BHX","BHX","Birmingham Intl Arpt","GB","","","BHX","",2,52.45,-1.73
"ap/BHY","BHY","Beihai Airport","CN","","","BHY","",2,21.48,109.16
"ap/BIA","BIA","Poretta Airport","FR","","","BIA","",2,42.56,9.49
"ap/BID","BID","Block Island Municipal","US","RI","","BID","",2,41.16,-71.57
"ap/BIF","BIF","Biggs Army Air Field","US","TX","","ELP","QHF",9,31.83,-106.4
"ap/BIH","BIH","Bishop Airport","US","CA","","BIH","",9,37.37,-118.36
"ap/BII","BII","Enyu Airfield","MH","","","BII","",2,11.58,165.38
"ap/BIK","BIK","Mokmer Arpt","ID","","","BIK","",2,-1,136.11
"ap/BIL","BIL","Logan Field","US","MT","","BIL","",2,45.8,-108.53
"ap/BIM","BIM","Bimini Airport","BS","","","BIM","QHF",9,25.69,-79.26
"ap/BIO","BIO","Bilbao Arpt","ES","","","BIO","",2,43.3,-2.9
"ap/BIQ","BIQ","Bayonne Anglet Arpt","FR","","","BIQ","",2,43.47,-1.53
"ap/BIS","BIS","Bismarck Municipal Arpt","US","ND","","BIS","",2,46.77,-100.75
"ap/BIY","BIY","Bisho Arpt","ZA","","","BIY","",9,-32.83,27.33
"ap/BJA","BJA","Bejaia Arpt","DZ","","","BJA","QHF",2,36.75,5.08
"ap/BJC","BJC","Jeffco Arpt","US","CO","","BJC","",9,39.9,-105.11
"ap/BJF","BJF","Batsfjord Arpt","NO","","","BJF","",2,70.63,29.5
"ap/BJI","BJI","Bemidji Municipal Arpt","US","MN","","BJI","",2,47.51,-94.93
"ap/BJL","BJL","Yundum Intl Arpt","GM","","","BJL","",2,13.35,-16.66
"ap/BJM","BJM","Bujumbura Intl Arpt","BI","","","BJM","",2,-3.31,29.31
"ap/BJR","BJR","Bahar Dar Arpt","ET","","","BJR","QHF",2,11.58,37.38
"ap/BJV","BJV","Milas Arpt","TR","","","BXN","",2,37.05,27.46
"ap/BJX","BJX","Del Bajio Arpt","MX","","","BJX","",2,20.99,-101.48
"ap/BJY","BJY","Batajnica Arpt","RS","","","BEG","QHF",9,44.81,21.3
"ap/BJZ","BJZ","Talaveral La Real Arpt","ES","","","BJZ","QHF",2,38.89,-6.82
"ap/BKA","BKA","Bykovo Arpt","RU","","MOW","MOW","",2,55.6,38.08
"ap/BKI","BKI","Kota Kinabalu Arpt","MY","","","BKI","",2,5.93,116.05
"ap/BKK","BKK","Suvarnabhumi Intl Arpt","TH","","","BKK","QHF",2,13.68,100.74
"ap/BKL","BKL","Burke Lakefront Arpt","US","OH","","CLE","",9,41.51,-81.69
"ap/BKM","BKM","Bakalalan Arpt","MY","","","BKM","QHF",3,3.98,115.62
"ap/BKO","BKO","Senou Airport","ML","","","BKO","",2,12.63,-8.01
"ap/BKQ","BKQ","Blackall Arpt","AU","QL","","BKQ","QHF",2,-24.43,145.42
"ap/BKS","BKS","Padangkemiling Arpt","ID","","","BKS","",2,-3.76,102.3
"ap/BKW","BKW","Raleigh Cty Memorial","US","WV","","BKW","",2,37.78,-81.11
"ap/BKX","BKX","Brookings Municipal","US","SD","","BKX","",2,44.3,-96.8
"ap/BLA","BLA","Gen J A Anzoategui Arpt","VE","","","BLA","",2,10.1,-64.69
"ap/BLE","BLE","Dala Airport","SE","","","BLE","",2,60.42,15.51
"ap/BLF","BLF","Mercer County","US","WV","","BLF","",2,37.29,-81.2
"ap/BLG","BLG","Belaga Arpt","MY","","","BLG","QHF",3,2.64,113.76
"ap/BLH","BLH","Blythe Airport","US","CA","","BLH","",9,33.61,-114.71
"ap/BLI","BLI","Bellingham Intl Arpt","US","WA","","BLI","",2,48.79,-122.53
"ap/BLK","BLK","Blackpool Airport","GB","","","BLK","",2,53.73,-3.03
"ap/BLL","BLL","Billund Airport","DK","","","BLL","",2,55.73,9.15
"ap/BLQ","BLQ","Guglielmo Marconi","IT","","","BLQ","",2,44.53,11.3
"ap/BLR","BLR","Hindustan Arpt","IN","","","BLR","QHF",2,12.94,77.66
"ap/BLT","BLT","Blackwater Arpt","AU","QL","","BLT","QHF",2,-23.58,148.88
"ap/BLV","BLV","Scott AFB Mid America","US","IL","","BLV","",9,38.51,-89.83
"ap/BLX","BLX","Belluno Arpt","IT","","","BLX","QHF",9,46.33,12.33
"ap/BLZ","BLZ","Chileka Airport","MW","","","BLZ","",2,-15.68,34.96
"ap/BMA","BMA","Bromma Airport","SE","","STO","STO","",2,59.34,17.95
"ap/BME","BME","Broome Airport","AU","WA","","BME","QHF",2,-17.94,122.23
"ap/BMG","BMG","Monroe Cty Arpt Indiana","US","IN","","BMG","",9,39.14,-86.61
"ap/BMI","BMI","Normal Airport","US","IL","","BMI","",2,40.48,-88.92
"ap/BMP","BMP","Brampton Island Arpt","AU","QL","","BMP","QHF",2,-20.78,149.23
"ap/BMV","BMV","Phung Duc Arpt","VN","","","BMV","",2,12.66,108.1
"ap/BNA","BNA","Nashville International Arpt","US","TN","","BNA","QHF",2,36.13,-86.67
"ap/BNE","BNE","Brisbane Arpt","AU","QL","","BNE","QHF",2,-27.38,153.11
"ap/BNJ","BNJ","Bonn Railroad Station","DE","","","BNJ","",6,50.73,7.09
"ap/BNK","BNK","Ballina Arpt","AU","NS","","BNK","QHF",2,-28.86,153.55
"ap/BNN","BNN","Bronnoy Arpt","NO","","","BNN","",2,65.48,12.21
"ap/BNO","BNO","Burns Municipal Arpt","US","OR","","BNO","QHF",9,43.59,-118.95
"ap/BNU","BNU","Blumenau Arpt","BR","","","BNU","",9,-26.93,-49.05
"ap/BNX","BNX","Banja Luka Arpt","BA","","","BNX","",2,44.76,17.18
"ap/BOB","BOB","Motu Mute Arpt","PF","","","BOB","QHF",2,-16.44,-151.74
"ap/BOC","BOC","Bocas Del Toro Arpt","PA","","","BOC","",2,9.33,-82.25
"ap/BOD","BOD","Bordeaux Arpt","FR","","","BOD","",2,44.83,-0.69
"ap/BOG","BOG","Eldorado Airport","CO","","","BOG","",2,4.7,-74.15
"ap/BOH","BOH","Bournemouth Intl Arpt","GB","","","BOH","",2,50.77,-1.83
"ap/BOI","BOI","Boise Municipal Arpt Gowen Field","US","ID","","BOI","",2,43.56,-116.22
"ap/BOJ","BOJ","Bourgas Arpt","BG","","","BOJ","",2,42.54,27.53
"ap/BOM","BOM","Chhatrapati Shivaji Intl","IN","","","BOM","",2,19.08,72.86
"ap/BON","BON","Flamingo Field","AN","","","BON","",2,12.13,-68.27
"ap/BOO","BOO","Bodo Arpt","NO","","","BOO","",2,67.26,14.36
"ap/BOS","BOS","Logan Intl Arpt","US","MA","","BOS","",2,42.36,-71.01
"ap/BOU","BOU","Bourges Arpt","FR","","","BOU","QHF",9,47.06,2.36
"ap/BOW","BOW","Bartow Arpt","US","FL","","BOW","QHF",9,27.93,-81.78
"ap/BOX","BOX","Borroloola Arpt","AU","NT","","BOX","QHF",9,-16.07,136.3
"ap/BOY","BOY","Borgo Arpt","BF","","","BOY","QHF",2,11.16,-4.32
"ap/BPN","BPN","Sepingan Arpt","ID","","","BPN","QHF",2,-1.26,116.89
"ap/BPS","BPS","Porto Seguro Arpt","BR","","","BPS","",2,-16.43,-39.08
"ap/BPT","BPT","Jefferson Cty Arpt","US","TX","","BPT","",2,29.95,-94.02
"ap/BQB","BQB","Busselton Arpt","AU","WA","","BQB","QHF",9,-33.71,115.25
"ap/BQK","BQK","Gylnco Jet Port","US","GA","","BQK","",2,31.25,-81.45
"ap/BQL","BQL","Boulia Arpt","AU","QL","","BQL","QHF",2,-22.96,139.96
"ap/BQN","BQN","Borinquen Municipal Arpt","US","PR","","BQN","",2,18.42,-67.15
"ap/BQS","BQS","Blagoveshchensk Arpt","RU","","","BQS","",2,50.41,127.4
"ap/BQT","BQT","Brest Arpt","BY","","","BQT","",9,52.11,23.88
"ap/BRA","BRA","Barreiras Arpt","BR","","","BRA","QHF",9,-12.07,-45
"ap/BRC","BRC","San Carlos De Bariloche Intl Arpt","AR","","","BRC","",2,-41.15,-71.17
"ap/BRD","BRD","Crowwing Cty Arpt","US","MN","","BRD","",2,46.39,-94.14
"ap/BRE","BRE","Bremen Airport","DE","","","BRE","",2,53.04,8.78
"ap/BRF","BRF","Bradford Rail Station","GB","","","BRF","",6,53.79,-1.75
"ap/BRI","BRI","Bari Airport","IT","","","BRI","",2,41.14,16.75
"ap/BRK","BRK","Bourke Airport","AU","NS","","BRK","QHF",2,-30.03,145.95
"ap/BRL","BRL","Burlington Municipal Arpt","US","IA","","BRL","",2,40.78,-91.11
"ap/BRM","BRM","Airport Barquisimeto","VE","","","BRM","",2,10.04,-69.35
"ap/BRN","BRN","Belp Airport","CH","","","BRN","",2,46.91,7.49
"ap/BRO","BRO","South Padre Island Intl Arpt","US","TX","","BRO","",2,25.9,-97.43
"ap/BRQ","BRQ","Turnay Arpt","CZ","","","BRQ","",2,49.15,16.7
"ap/BRR","BRR","North Bay Arpt","GB","","","BRR","",2,57.16,-7.43
"ap/BRS","BRS","Bristol Intl Arpt","GB","","","BRS","",2,51.38,-2.7
"ap/BRT","BRT","Bathurst Island Arpt","AU","NT","","BRT","QHF",9,-11.5,130.28
"ap/BRU","BRU","Brussels National Arpt","BE","","","BRU","",2,50.89,4.48
"ap/BRV","BRV","Bremerhaven Arpt","DE","","","BRV","QHF",2,53.5,8.57
"ap/BRW","BRW","Barrow WBAS","US","AK","","BRW","",2,71.28,-156.76
"ap/BRX","BRX","Barahona Arpt","DO","","","BRX","",9,17.21,-71.11
"ap/BSB","BSB","Brasilia Intl Arpt","BR","","","BSB","",2,-15.86,-47.91
"ap/BSD","BSD","Baoshan Arpt","CN","","","BSD","QHF",3,25.15,99.15
"ap/BSH","BSH","Brighton Rail Station","GB","","","BSH","",6,50.84,-0.13
"ap/BSI","BSI","Blairsville Arpt","US","PA","","BSI","",9,40.43,-79.26
"ap/BSJ","BSJ","Bairnsdale Airport","AU","VI","","BSJ","QHF",9,-37.88,147.56
"ap/BSK","BSK","Biskra Arpt","DZ","","","BSK","QHF",2,34.8,5.73
"ap/BSL","BSL","Basel EuroAirport Swiss","CH","","","BSL","QHF",2,47.6,7.53
"ap/BSQ","BSQ","Bisbee Municipal Arpt","US","AZ","","BSQ","QHF",9,31.36,-109.88
"ap/BSR","BSR","Basra Intl Arpt","IQ","","","BSR","",9,30.55,47.76
"ap/BTH","BTH","Hang Nadim Arpt","ID","","","BTH","",2,1.06,104.13
"ap/BTJ","BTJ","Blang Bintang Arpt","ID","","","BTJ","",2,5.51,95.41
"ap/BTK","BTK","Bratsk Arpt","RU","","","BTK","QHF",3,56.37,101.7
"ap/BTL","BTL","WK Kellogg Regional","US","MI","","BTL","",2,42.3,-85.25
"ap/BTM","BTM","Bert Mooney Arpt","US","MT","","BTM","",2,45.95,-112.5
"ap/BTR","BTR","Ryan Airport","US","LA","","BTR","",2,30.53,-91.14
"ap/BTS","BTS","Ivanka Arpt","SK","","","BTS","",2,48.15,17.11
"ap/BTU","BTU","Bintulu Arpt","MY","","","BTU","",2,3.17,113.03
"ap/BTV","BTV","Burlington Intl Arpt","US","VT","","BTV","",2,44.47,-73.14
"ap/BTZ","BTZ","Bursa Arpt","TR","","","BTZ","QHF",9,40.23,29
"ap/BUC","BUC","Burketown Arpt","AU","QL","","BUC","QHF",2,-17.75,139.53
"ap/BUD","BUD","Ferihegy Arpt","HU","","","BUD","",2,47.43,19.23
"ap/BUF","BUF","Greater Buffalo Intl Arpt","US","NY","","BUF","",2,42.93,-78.73
"ap/BUQ","BUQ","Bulawayo Arpt","ZW","","","BUQ","QHF",2,-20.01,28.61
"ap/BUR","BUR","Burbank Glendale Pasadena Arpt","US","CA","QLA","BUR","",2,34.19,-118.35
"ap/BUS","BUS","Batumi Arpt","GE","","","BUS","",2,41.61,41.6
"ap/BUY","BUY","Bunbury Arpt","AU","WA","","BUY","QHF",9,-33.31,115.63
"ap/BUZ","BUZ","Bushehr Arpt","IR","","","BUZ","",2,28.94,50.83
"ap/BVA","BVA","Beauvais Tille Arpt","FR","","","PAR","",9,49.45,2.11
"ap/BVB","BVB","Boa Vista Arpt","BR","","","BVB","",2,2.83,-60.68
"ap/BVC","BVC","Rabil Arpt","CV","","","BVC","QHF",2,16.13,-22.88
"ap/BVE","BVE","Laroche Airport","FR","","","BVE","",2,45.15,1.47
"ap/BVH","BVH","Vilhena Arpt","BR","","","BVH","",9,-12.63,-60.13
"ap/BVI","BVI","Birdsville Arpt","AU","QL","","BVI","QHF",2,-25.89,139.34
"ap/BVO","BVO","Bartlesville Municipal Arpt","US","OK","","BVO","",9,36.75,-96
"ap/BVR","BVR","Esperadinha","CV","","","BVR","",9,14.86,-24.71
"ap/BVX","BVX","Batesville Municipal","US","AR","","BVX","",9,35.72,-91.64
"ap/BWC","BWC","Brawley Arpt","US","CA","","BWC","",9,32.98,-115.51
"ap/BWD","BWD","Brownwood Municipal Arpt","US","TX","","BWD","",2,31.8,-98.95
"ap/BWE","BWE","Braunschweig Arpt","DE","","","BWE","",9,52.32,10.55
"ap/BWF","BWF","Walney Island","GB","","","BWF","",2,54.11,-3.23
"ap/BWG","BWG","Warren Cty Arpt","US","KY","","BWG","",9,36.96,-86.42
"ap/BWI","BWI","Baltimore Washington Intl Arpt","US","MD","WAS","BWI","",2,39.17,-76.66
"ap/BWN","BWN","Brunei Intl Arpt","BN","","","BWN","",2,4.9,114.91
"ap/BWQ","BWQ","Brewarrina Arpt","AU","NS","","BWQ","QHF",9,-29.96,146.81
"ap/BWT","BWT","Burnie Wynyard Arpt","AU","TS","","BWT","QHF",2,-40.99,145.73
"ap/BWU","BWU","Bankstown Aerodrome","AU","NS","","BWU","QHF",9,-33.92,150.98
"ap/BXN","BXN","Imsik Arpt","TR","","","BXN","",9,37.13,27.66
"ap/BXS","BXS","Borrego Valley Arpt","US","CA","","BXS","",9,33.25,-116.32
"ap/BXU","BXU","Butuan Arpt","PH","","","BXU","",2,8.95,125.48
"ap/BYI","BYI","Burley Arpt","US","ID","","BYI","",9,42.53,-113.76
"ap/BYR","BYR","Laeso Airport","DK","","","BYR","QHF",9,57.27,11
"ap/BYU","BYU","Bindlacher Berg Arpt","DE","","","BYU","",9,49.98,11.63
"ap/BYW","BYW","Blakely Is Municipal","US","WA","","BYW","",9,48.58,-122.83
"ap/BZC","BZC","Buzios Arpt","BR","","","BZC","",9,-22.76,-41.96
"ap/BZE","BZE","Belize Intl Arpt","BZ","","QBZ","BZE","",2,17.58,-88.28
"ap/BZG","BZG","Bydgoszcz Arpt","PL","","","BZG","",2,53.26,17.99
"ap/BZH","BZH","Bumi Hills Arpt","ZW","","","BZH","",9,-16.81,28.35
"ap/BZN","BZN","Gallatin Field","US","MT","","BZN","",2,45.77,-111.15
"ap/BZO","BZO","Bolzano Arpt","IT","","","BZO","QHF",2,46.46,11.32
"ap/BZR","BZR","Beziers Vias Arpt","FR","","","BZR","",2,43.35,3.25
"ap/BZT","BZT","Brazoria County Arpt","US","TX","","BZT","",9,29.11,-95.45
"ap/BZV","BZV","Maya Maya Arpt","CG","","","BZV","",2,-4.25,15.25
"ap/BZZ","BZZ","Brize Norton Raf Station","GB","","","OXF","QHF",3,51.78,-1.75
"ap/CAC","CAC","Cascavel Arpt","BR","","","CAC","QHF",9,-24.99,-53.5
"ap/CAD","CAD","Wexford County Arpt","US","MI","","CAD","",2,44.27,-85.41
"ap/CAE","CAE","Columbia Metro Arpt","US","SC","","CAE","",2,33.94,-81.12
"ap/CAG","CAG","Elmas Airport","IT","","","CAG","",2,39.26,9.05
"ap/CAI","CAI","Cairo Intl Arpt","EG","","","CAI","",2,30.12,31.4
"ap/CAK","CAK","Akron Canton Regional Arpt","US","OH","","CAK","",2,40.91,-81.43
"ap/CAL","CAL","Machrihanish Arpt","GB","","","CAL","QHF",2,55.43,-5.68
"ap/CAM","CAM","Choreti Arpt","BO","","","CAM","",9,-20.01,-63.55
"ap/CAN","CAN","Baiyun Airport","CN","","","CAN","QHF",2,23.18,113.26
"ap/CAP","CAP","Cap Haitien Numicipal","HT","","","CAP","",2,19.73,-72.19
"ap/CAR","CAR","Caribou Municipal Arpt","US","ME","","CAR","QHF",9,46.86,-68.01
"ap/CAS","CAS","Anfa Airport","MA","","","CAS","",9,33.55,-7.66
"ap/CAU","CAU","Caruaru Arpt","BR","","","CAU","",9,-8.28,-35.96
"ap/CAW","CAW","Bartolomeu Lisandro Arpt","BR","","","CAW","",9,-21.75,-41.3
"ap/CAX","CAX","Carlisle Arpt","GB","","","CAX","",2,54.93,-2.8
"ap/CAY","CAY","Rochambeau Airport","GF","","","CAY","",2,4.78,-52.41
"ap/CAZ","CAZ","Cobar Arpt","AU","NS","","CAZ","QHF",2,-31.53,145.79
"ap/CBB","CBB","J Wilsterman Arpt","BO","","","CBB","QHF",2,-17.42,-66.17
"ap/CBE","CBE","Cumberland Municipal Arpt","US","MD","","CBE","",2,39.61,-78.76
"ap/CBF","CBF","Council Bluffs Municipal Arpt","US","IA","","CBF","",9,41.26,-95.76
"ap/CBG","CBG","Cambridge Arpt","GB","","","CBG","",2,52.2,0.17
"ap/CBK","CBK","Colby Municipal Arpt","US","KS","","CBK","",9,39.41,-101.05
"ap/CBL","CBL","Ciudad Bolivar Arpt","VE","","","CBL","QHF",2,8.12,-63.53
"ap/CBN","CBN","Penggung Arpt","ID","","","CBN","",9,-6.75,108.53
"ap/CBO","CBO","Awang Arpt","PH","","","CBO","QHF",2,7.2,124.16
"ap/CBP","CBP","Coimbra Arpt","PT","","","CBP","",9,40.15,-8.46
"ap/CBR","CBR","Canberra Arpt","AU","AC","","CBR","QHF",2,-35.3,149.19
"ap/CBS","CBS","Oro Negro Arpt","VE","","","CBS","",9,10.38,-71.46
"ap/CCC","CCC","Cayo Coco Arpt","CU","","","CCC","",2,22.5,-78.5
"ap/CCE","CCE","Grand Case Arpt","GP","","","CCE","QHF",9,18.06,-63.03
"ap/CCF","CCF","Salvaza","FR","","","CCF","QHF",9,43.21,2.3
"ap/CCJ","CCJ","Kozhikode Arpt","IN","","","CCJ","QHF",2,11.13,75.95
"ap/CCK","CCK","Cocos Islands Arpt","CC","","","CCK","",2,-12.18,96.83
"ap/CCM","CCM","Criciuma Arpt","BR","","","CCM","",9,-28.7,-49.38
"ap/CCP","CCP","Carriel Sur Arpt","CL","","","CCP","",2,-36.77,-73.11
"ap/CCR","CCR","Buchanan Field","US","CA","","CCR","",9,37.98,-122.05
"ap/CCS","CCS","Simon Bolivar Arpt","VE","","","CCS","",2,10.6,-66.96
"ap/CCU","CCU","Netaji Subhas Chandra Bose Intl","IN","","","CCU","",2,22.65,88.45
"ap/CDA","CDA","Cooinda Airport","AU","NT","","CDA","QHF",9,-12.9,132.51
"ap/CDC","CDC","Cedar City Municipal","US","UT","","CDC","",2,37.7,-113.09
"ap/CDD","CDD","Cauquira Arpt","HN","","","CDD","QHF",9,15.32,-83.6
"ap/CDG","CDG","Charles De Gaulle Intl Arpt","FR","","PAR","PAR","",2,49.01,2.54
"ap/CDH","CDH","Harrell Fieldsandro Arpt","US","AR","","CDH","",9,33.58,-92.82
"ap/CDI","CDI","Cachoeiro De Itapemirim Arpt","BR","","","CDI","",9,-20.85,-41.11
"ap/CDR","CDR","Chadron Arpt","US","NE","","CDR","",2,42.83,-103.09
"ap/CDV","CDV","Mudhole Smith Arpt","US","AK","","CDV","",2,60.49,-145.47
"ap/CDW","CDW","Caldwell Wright Arpt","US","NJ","","CDW","",9,40.87,-74.27
"ap/CEB","CEB","Cebu Intl","PH","","","CEB","",2,10.3,123.9
"ap/CEC","CEC","Crescent City Municipal Arpt","US","CA","","CEC","",2,41.77,-124.23
"ap/CED","CED","Ceduna Arpt","AU","SA","","CED","QHF",2,-32.13,133.68
"ap/CEF","CEF","Westover Metro","US","MA","","SFY","",9,42.19,-72.52
"ap/CEG","CEG","Chester Arpt","GB","","","CEG","",2,53.13,-2.93
"ap/CEH","CEH","Chelinda Arpt","MW","","","CEH","",9,10.55,33.8
"ap/CEI","CEI","Chaing Rai Arpt","TH","","","CEI","",2,19.88,99.82
"ap/CEK","CEK","Chelyabinsk Arpt","RU","","","CEK","QHF",2,55.3,61.5
"ap/CEN","CEN","Ciudad Obregon Arpt","MX","","","CEN","QHF",2,27.39,-109.83
"ap/CEQ","CEQ","Mandelieu Arpt","FR","","","CEQ","",9,43.55,6.95
"ap/CER","CER","Maupertius Arpt","FR","","","CER","",2,49.65,-1.65
"ap/CES","CES","Cessnock Arpt","AU","NS","","CES","QHF",9,-32.78,151.34
"ap/CET","CET","Le Pontreau Arpt","FR","","","CET","QHF",9,47.08,-0.87
"ap/CEU","CEU","Clemson Oconee Cty Arpt","US","SC","","CEU","",9,34.67,-82.88
"ap/CEY","CEY","Calloway Cty Arpt","US","KY","","CEY","",9,36.66,-88.37
"ap/CEZ","CEZ","Montezuma County","US","CO","","CEZ","",2,37.3,-108.62
"ap/CFB","CFB","Cabo Frio Arpt","BR","","","CFB","QHF",9,-22.92,-42.07
"ap/CFE","CFE","Aulnat Arpt","FR","","","CFE","",2,45.78,3.16
"ap/CFG","CFG","Cienfuegos Arpt","CU","","","CFG","",2,22.2,-80.51
"ap/CFN","CFN","Donegal Arpt","IE","","","CFN","",2,55.05,-8.33
"ap/CFQ","CFQ","Creston Arpt","CA","BC","","CFQ","",9,49.03,-116.49
"ap/CFR","CFR","Carpiquet Arpt","FR","","","CFR","",2,49.17,-0.45
"ap/CFS","CFS","Coffs Harbour Arpt","AU","NS","","CFS","QHF",2,-30.31,153.12
"ap/CFU","CFU","I Kapodistrias Arpt","GR","","","CFU","QHF",2,39.61,19.86
"ap/CGA","CGA","Craig Seaplane Base","US","AK","","CGA","QHF",2,55.47,-133.14
"ap/CGB","CGB","Marechal Rondon Arpt","BR","","","CGB","",2,-15.58,-56.08
"ap/CGD","CGD","Changde Arpt","CN","","","CGD","",9,29.03,111.68
"ap/CGF","CGF","Cuyahoga County Airport","US","OH","","CLE","",9,41.56,-81.49
"ap/CGH","CGH","Congonhas Arpt","BR","","SAO","SAO","",2,-23.62,-46.65
"ap/CGI","CGI","Cape Girardeau Municipal Arpt","US","MO","","CGI","",2,37.22,-89.56
"ap/CGK","CGK","Soekarno Hatta Intl","ID","","","JKT","",2,-6.1,106.64
"ap/CGN","CGN","Koeln Bonn Arpt","DE","","","CGN","",2,50.87,7.12
"ap/CGO","CGO","Zhengzhou Arpt","CN","","","CGO","",2,34.75,113.41
"ap/CGP","CGP","Patenga Arpt","BD","","","CGP","",2,22.28,91.83
"ap/CGQ","CGQ","Changchun Arpt","CN","","","CGQ","",2,43.91,125.33
"ap/CGR","CGR","Internacional","BR","","","CGR","",9,-20.46,-54.67
"ap/CGX","CGX","Merrill C Meigs Arpt","US","IL","","CHI","QHF",3,41.86,-87.6
"ap/CGY","CGY","Lumbia Arpt","PH","","","CGY","",2,8.41,124.6
"ap/CHA","CHA","Chattanooga Lovell Fld","US","TN","","CHA","",2,35.04,-85.21
"ap/CHC","CHC","Christchurch Arpt","NZ","","","CHC","QHF",2,-43.48,172.54
"ap/CHO","CHO","Charlottesville Albemarle Arpt","US","VA","","CHO","",2,38.13,-78.44
"ap/CHQ","CHQ","Souda Arpt","GR","","","CHQ","",2,35.53,24.15
"ap/CHR","CHR","Chateauroux Arpt","FR","","","CHR","",9,46.81,1.7
"ap/CHS","CHS","Charleston Intl Arpt","US","SC","","CHS","",2,32.88,-80.03
"ap/CHX","CHX","Changuinola Arpt","PA","","","CHX","QHF",2,9.45,-82.51
"ap/CIA","CIA","Ciampino Arpt","IT","","ROM","ROM","",2,41.79,12.58
"ap/CIC","CIC","Chico Municipal Arpt","US","CA","","CIC","",2,39.79,-121.85
"ap/CID","CID","Cedar Rapids Municipal Arpt","US","IA","","CID","",2,41.88,-91.7
"ap/CIG","CIG","Craig Moffat","US","CO","","CIG","",9,40.49,-107.51
"ap/CIL","CIL","Melsing Creek Arpt","US","AK","","CIL","QHF",9,64.9,-163.73
"ap/CIO","CIO","Mcal Lopez Arpt","PY","","","CIO","",2,-23.43,-57.41
"ap/CIT","CIT","Shimkent Arpt","KZ","","","CIT","",2,42.3,69.6
"ap/CIU","CIU","Chippewa Cnty Intl","US","MI","","SSM","",2,46.24,-84.47
"ap/CIW","CIW","Canouan Island Minicipal","DM","","","CIW","QHF",2,12.71,-61.33
"ap/CIX","CIX","Cornel Ruiz Arpt","PE","","","CIX","QHF",2,-6.78,-79.83
"ap/CIY","CIY","Comiso Arpt","IT","","","CIY","QHF",9,37,14.6
"ap/CJB","CJB","Peelamedu Airport","IN","","","CJB","",2,11.03,77.05
"ap/CJC","CJC","El Loa Arpt","CL","","","CJC","",2,-22.49,-68.9
"ap/CJI","CJI","Ciudad Real Arpt","ES","","","CJI","",2,38.98,-3.91
"ap/CJJ","CJJ","Cheongju Arpt","KR","","","CJJ","",2,36.71,127.5
"ap/CJM","CJM","Chumphon Arpt","TH","","","CJM","",2,10.71,99.36
"ap/CJN","CJN","El Cajon Arpt","US","CA","","CJN","",9,32.78,-116.95
"ap/CJS","CJS","Intl Abraham Gonzalez","MX","","","CJS","",2,31.63,-106.42
"ap/CJU","CJU","Jeju Intl Arpt","KR","","","CJU","",2,33.5,126.49
"ap/CKB","CKB","Clarksburg Benedum Arpt","US","WV","","CKB","",2,39.29,-80.23
"ap/CKG","CKG","Chongqing Arpt","CN","","","CKG","",2,29.7,106.58
"ap/CKM","CKM","Fletcher Field","US","MS","","CKM","",9,34.29,-90.51
"ap/CKS","CKS","Carajas Arpt","BR","","","CKS","",2,-6,-51.33
"ap/CKV","CKV","Outlaw Field","US","TN","","CKV","",9,36.62,-87.41
"ap/CKY","CKY","Conakry Airport","GN","","","CKY","",2,9.56,-13.61
"ap/CLC","CLC","Metroport","US","TX","","CLC","",9,29.55,-95.13
"ap/CLD","CLD","Carlsbad Arpt","US","CA","","CLD","",2,33.12,-117.27
"ap/CLE","CLE","Hopkins Intl Arpt","US","OH","","CLE","",2,41.41,-81.83
"ap/CLJ","CLJ","Napoca Arpt","RO","","","CLJ","",2,46.78,23.68
"ap/CLK","CLK","Clinton Municipal Arpt","US","OK","","CSM","",9,35.53,-98.92
"ap/CLL","CLL","Easterwood Field","US","TX","","CLL","",2,30.58,-96.36
"ap/CLM","CLM","William Fairchild Intl Arpt","US","WA","","CLM","",2,48.11,-123.49
"ap/CLO","CLO","Alfonso Bonella Aragon Arpt","CO","","","CLO","",2,3.54,-76.38
"ap/CLQ","CLQ","Colima Arpt","MX","","","CLQ","",2,19.27,-103.57
"ap/CLT","CLT","Charlotte Douglas Intl Arpt","US","NC","","CLT","",2,35.22,-80.94
"ap/CLU","CLU","Columbus Municipal Arpt","US","IN","","CLU","",9,39.26,-85.89
"ap/CLY","CLY","Ste Catherine Arpt","FR","","","CLY","",2,42.53,8.8
"ap/CMA","CMA","Cunnamulla Arpt","AU","QL","","CMA","QHF",2,-28.03,145.61
"ap/CMB","CMB","Bandaranaike Intl Arpt","LK","","","CMB","",2,7.16,79.88
"ap/CME","CME","Ciudad Del Carmen Arpt","MX","","","CME","",2,18.63,-91.78
"ap/CMF","CMF","Chambery Aix Les Bains Arpt","FR","","","CMF","",2,45.63,5.88
"ap/CMG","CMG","Internacional Corumba","BR","","","CMG","",9,-19.01,-57.65
"ap/CMH","CMH","Port Columbus Intl Arpt","US","OH","","CMH","",2,40,-82.88
"ap/CMI","CMI","Univ Of Illinois Willard Arpt","US","IL","","CMI","",2,40.04,-88.26
"ap/CMN","CMN","Mohamed V Arpt","MA","","","CAS","",2,33.37,-7.58
"ap/CMQ","CMQ","Clermont Arpt","AU","QL","","CMQ","QHF",9,-22.86,147.5
"ap/CMR","CMR","Colmar Houssen Arpt","FR","","","CMR","",9,48.06,7.35
"ap/CMV","CMV","Coromandel Arpt","NZ","","","CMV","",9,-36.75,175.5
"ap/CMW","CMW","Ign Agramonte Intl Arpt","CU","","","CMW","",2,21.43,-77.8
"ap/CMX","CMX","Houghton Cty Memorial Arpt","US","MI","","CMX","",2,47.11,-88.56
"ap/CMY","CMY","Camp Mccoy Aaf","US","WI","","CMY","",9,43.95,-90.73
"ap/CNB","CNB","Coonamble Arpt","AU","NS","","CNB","QHF",2,-30.98,148.37
"ap/CNC","CNC","Coconut Island Arpt","AU","QL","","CNC","QHF",2,-10.05,143.06
"ap/CND","CND","Kogalniceanu Arpt","RO","","","CND","",2,44.35,28.48
"ap/CNF","CNF","Tancredo Neves Intl Arpt","BR","","BHZ","BHZ","",2,-19.83,-44
"ap/CNG","CNG","Parvaud Arpt","FR","","","CNG","QHF",9,45.66,-0.31
"ap/CNH","CNH","Claremont Municipal","US","NH","","LEB","",9,43.36,-72.36
"ap/CNJ","CNJ","Cloncurry Arpt","AU","QL","","CNJ","QHF",2,-20.66,140.5
"ap/CNM","CNM","Carlsbad Airport","US","NM","","CNM","",2,32.34,-104.25
"ap/CNQ","CNQ","Camba Punta Arpt","AR","","","CNQ","",2,-27.46,-58.83
"ap/CNS","CNS","Cairns Airport","AU","QL","","CNS","QHF",2,-16.88,145.74
"ap/CNX","CNX","Chiang Mai Intl Arpt","TH","","","CNX","",2,18.77,98.95
"ap/CNY","CNY","Moab Municipal","US","UT","","CNY","",2,38.76,-109.74
"ap/COC","COC","Concordia Arpt","AR","","","COC","QHF",9,-31.29,-57.99
"ap/COD","COD","Yellowstone Regional Arpt","US","WY","","COD","",2,44.51,-109.02
"ap/COE","COE","Coeur d Alene Municipal Arpt","US","ID","","COE","",9,47.77,-116.81
"ap/COF","COF","Patrick AFB","US","FL","","COF","",9,28.23,-80.6
"ap/COI","COI","Merrit Island Arpt","US","FL","","COF","",9,28.34,-80.68
"ap/COJ","COJ","Coonabarabran Arpt","AU","NS","","COJ","QHF",9,-31.26,149.28
"ap/COK","COK","Kochi Intl Arpt","IN","","","COK","QHF",2,9.94,76.27
"ap/CON","CON","Concord Arpt","US","NH","","CON","QHF",9,43.2,-71.5
"ap/COO","COO","Cotonou Airport","BJ","","","COO","",2,6.35,2.38
"ap/COR","COR","Pajas Blanco Arpt","AR","","","COR","",2,-31.31,-64.2
"ap/COS","COS","Colorado Springs Municipal Arpt","US","CO","","COS","",2,38.79,-104.7
"ap/COU","COU","Columbia Regional","US","MO","","COU","",2,38.81,-92.22
"ap/CPC","CPC","Chapelco Arpt","AR","","","CPC","",2,-40.11,-71.21
"ap/CPD","CPD","Coober Pedy Arpt","AU","SA","","CPD","QHF",2,-29.05,134.75
"ap/CPE","CPE","Campeche Intl Arpt","MX","","","CPE","",2,19.85,-90.53
"ap/CPH","CPH","Copenhagen Arpt","DK","","","CPH","",2,55.62,12.66
"ap/CPO","CPO","Chamonate Arpt","CL","","","CPO","QHF",2,-27.36,-70.35
"ap/CPQ","CPQ","International Campinas","BR","","","CPQ","",2,-23,-47.12
"ap/CPR","CPR","Natrona Cty Intl Arpt","US","WY","","CPR","",2,42.89,-106.46
"ap/CPS","CPS","East St Louis","US","MO","","STL","",9,38.56,-90.15
"ap/CPT","CPT","Cape Town International","ZA","","","CPT","",2,-33.96,18.6
"ap/CPV","CPV","Joao Suassuana Arpt","BR","","","CPV","",2,-7.21,-35.88
"ap/CPX","CPX","Culebra Arpt","US","PR","","CPX","",2,18.31,-65.3
"ap/CQD","CQD","Shahre Kord Arpt","IR","","","CQD","",2,32.29,50.83
"ap/CRA","CRA","Craiova Arpt","RO","","","CRA","QHF",9,44.31,23.88
"ap/CRD","CRD","Comodoro Rivadavia Arpt","AR","","","CRD","",2,-45.81,-67.43
"ap/CRE","CRE","Grand Strand Arpt","US","SC","","MYR","",9,33.81,-78.72
"ap/CRG","CRG","Craig Municipal Arpt","US","FL","","JAX","",2,30.33,-81.5
"ap/CRK","CRK","Clark Field Arpt","PH","","","CRK","QHF",3,17.16,119.75
"ap/CRL","CRL","Brussels South Charleroi Arpt","BE","","","BRU","QHF",9,50.49,4.55
"ap/CRP","CRP","Corpus Christi Intl Arpt","US","TX","","CRP","",2,27.77,-97.5
"ap/CRV","CRV","Crotone Arpt","IT","","","CRV","",9,39,17.08
"ap/CRW","CRW","Yeager Arpt","US","WV","","CRW","",2,38.37,-81.59
"ap/CRX","CRX","Roscoe Turner Arpt","US","MS","","CRX","",9,34.91,-88.6
"ap/CRZ","CRZ","Turkmenabad Arpt","TM","","","CRZ","",9,39.1,63.56
"ap/CSF","CSF","Creil Arpt","FR","","","CSF","",9,49.26,2.48
"ap/CSG","CSG","Columbus Metro Ft Benning Arpt","US","GA","","CSG","",2,32.51,-84.95
"ap/CSI","CSI","Casino Arpt","AU","NS","","CSI","QHF",9,-28.88,153.05
"ap/CSL","CSL","O Sullivan Army Air Field","US","CA","","CSL","",9,35.33,-120.73
"ap/CSM","CSM","Sherman Arpt","US","OK","","CSM","",9,35.33,-99.2
"ap/CSN","CSN","Carson Arpt","US","NV","","CSN","QHF",2,39.19,-119.73
"ap/CSU","CSU","Santa Cruz Do Sul Arpt","BR","","","CSU","QHF",9,-29.68,-52.41
"ap/CSX","CSX","Changsha Arpt","CN","","","CSX","",2,28.16,113
"ap/CTA","CTA","Fontanarossa Arpt","IT","","","CTA","",2,37.46,15.06
"ap/CTC","CTC","Choya Arpt","AR","","","CTC","",2,-28.44,-65.77
"ap/CTD","CTD","Chitre Airfield","PA","","","CTD","QHF",9,7.98,-80.4
"ap/CTG","CTG","Rafael Nunez Arpt","CO","","","CTG","",2,10.45,-75.51
"ap/CTL","CTL","Charleville Arpt","AU","QL","","CTL","QHF",2,-26.41,146.26
"ap/CTM","CTM","Chetumal International","MX","","","CTM","",2,18.5,-88.3
"ap/CTN","CTN","Cooktown Arpt","AU","QL","","CTN","QHF",2,-15.44,145.18
"ap/CTS","CTS","Chitose Arpt","JP","","SPK","SPK","",2,42.79,141.66
"ap/CTU","CTU","Chengdu Arpt","CN","","","CTU","",2,30.66,103.9
"ap/CTW","CTW","Cottonwood Airport","US","AZ","","CTW","",9,34.73,-112.03
"ap/CUA","CUA","Ciudad Constitucion Arpt","MX","","","CUA","",9,25.05,-111.65
"ap/CUC","CUC","Camilo Dazo Arpt","CO","","","CUC","",2,7.92,-72.5
"ap/CUE","CUE","Cuenca Arpt","EC","","","CUE","QHF",2,-2.86,-78.98
"ap/CUF","CUF","Levaldigi Arpt","IT","","","CUF","QHF",2,44.53,7.61
"ap/CUG","CUG","Cudal Arpt","AU","NS","","CUG","QHF",9,-33.3,148.7
"ap/CUL","CUL","Fedl De Bachigualato Arpt","MX","","","CUL","",2,24.8,-107.4
"ap/CUM","CUM","Antonio Jose De Sucre","VE","","","CUM","QHF",9,10.45,-64.13
"ap/CUN","CUN","Cancun Aeropuerto Internacional","MX","","","CUN","",2,21.03,-86.87
"ap/CUQ","CUQ","Coen Arpt","AU","QL","","CUQ","QHF",2,-13.76,143.11
"ap/CUR","CUR","Areopuerto Hato Arpt","AN","","","CUR","",2,12.16,-69
"ap/CUS","CUS","Columbus Municipal","US","NM","","CUS","",9,31.83,-107.66
"ap/CUU","CUU","Chihuahua Airport","MX","","","CUU","",2,28.7,-105.93
"ap/CUZ","CUZ","Tte Velazco Astete Arpt","PE","","","CUZ","",2,-13.53,-71.94
"ap/CVF","CVF","Courchevel Arpt","FR","","","CVF","",9,45.5,6.66
"ap/CVG","CVG","Cincinnati No Kentucky Intl Arpt","US","OH","","CVG","",2,39.05,-84.65
"ap/CVJ","CVJ","Cuernavaca Arpt","MX","","","CVJ","",2,18.91,-99.25
"ap/CVM","CVM","Ciudad Victoria Arpt","MX","","","CVM","QHF",2,23.71,-98.96
"ap/CVN","CVN","Clovis Airport","US","NM","","CVN","",2,34.41,-103.08
"ap/CVO","CVO","Corvallis Municipal Arpt","US","OR","","CVO","",9,44.49,-123.28
"ap/CVQ","CVQ","Carnarvon Arpt","AU","WA","","CVQ","QHF",2,-24.87,113.67
"ap/CVT","CVT","Baginton Arpt","GB","","","CVT","",2,52.36,-1.49
"ap/CVU","CVU","Corvo Arpt","PT","","","CVU","",2,39.7,-31.1
"ap/CWA","CWA","Central Wisconsin Arpt","US","WI","","AUW","",2,44.76,-89.66
"ap/CWB","CWB","Afonso Pena Arpt","BR","","","CWB","",2,-25.53,-49.17
"ap/CWI","CWI","Clinton Municipal","US","IA","","CWI","",9,41.82,-90.33
"ap/CWL","CWL","Cardiff Wales Arpt","GB","","","CWL","",2,51.38,-3.33
"ap/CWT","CWT","Cowra Arpt","AU","NS","","CWT","QHF",9,-33.85,148.65
"ap/CXH","CXH","Coal Harbor Sea Plane Arpt","CA","BC","YVR","YVR","",2,49.3,-123.08
"ap/CXI","CXI","Cassidy","KI","","","CXI","QHF",3,1.98,-157.67
"ap/CXJ","CXJ","Campo Dos Bugres Arpt","BR","","","CXJ","",2,-29.16,-51.18
"ap/CXL","CXL","Calexico Intl Arpt","US","CA","","CXL","",9,32.66,-115.51
"ap/CXO","CXO","Montgomery Co Arpt","US","TX","","CXO","",9,30.31,-95.45
"ap/CXP","CXP","Tunggul Wulung Arpt","ID","","","CXP","",9,-7.73,109
"ap/CXR","CXR","Cam Ranh Arpt","VN","","","CXR","QHF",2,11.99,109.22
"ap/CYB","CYB","Gerrard Smith Arpt","KY","","","CYB","QHF",2,19.78,-79.88
"ap/CYO","CYO","Cayo Largo Del Sur Arpt","CU","","","CYO","QHF",2,21.61,-81.55
"ap/CYR","CYR","Colonia Arpt","UY","","","CYR","",2,-34.45,-57.83
"ap/CYS","CYS","Cheyenne Arpt","US","WY","","CYS","",2,41.15,-104.81
"ap/CZA","CZA","Chichen Itza Arpt","MX","","","CZA","",2,20.66,-88.56
"ap/CZE","CZE","Coro Arpt","VE","","","CZE","",2,11.41,-69.69
"ap/CZL","CZL","Ain El Bey Arpt","DZ","","","CZL","",2,36.28,6.61
"ap/CZM","CZM","Aeropuerto Intl De Cozumel","MX","","","CZM","",2,20.52,-86.92
"ap/CZS","CZS","Campo Intl Arpt","BR","","","CZS","",2,-7.58,-72.78
"ap/CZX","CZX","Changzhou Arpt","CN","","","CZX","QHF",2,31.7,119.96
"ap/DAB","DAB","Daytona Beach Regional Arpt","US","FL","","DAB","",2,29.18,-81.05
"ap/DAC","DAC","Zia Intl Airport","BD","","","DAC","QHF",2,23.78,90.38
"ap/DAD","DAD","Da Nang Arpt","VN","","","DAD","",2,16.03,108.18
"ap/DAK","DAK","Dakhla Arpt","EG","","","DAK","QHF",9,25.41,28.99
"ap/DAL","DAL","Love Field","US","TX","QDF","DFW","",2,32.84,-96.85
"ap/DAM","DAM","Damascus Intl","SY","","","DAM","",2,33.48,36.21
"ap/DAN","DAN","Danville Municipal","US","VA","","DAN","",9,36.57,-79.34
"ap/DAR","DAR","Es Salaam Intl","TZ","","","DAR","",2,-6.87,39.2
"ap/DAT","DAT","Datong Arpt","CN","","","DAT","QHF",3,39.71,113.14
"ap/DAV","DAV","Enrique Malek Arpt","PA","","","DAV","",2,8.39,-82.43
"ap/DAY","DAY","Dayton International Airport","US","OH","","DAY","",2,39.89,-84.22
"ap/DBN","DBN","Dublin Municipal Arpt","US","GA","","DBN","",9,32.56,-82.98
"ap/DBO","DBO","Dubbo Arpt","AU","NS","","DBO","QHF",2,-32.25,148.61
"ap/DBQ","DBQ","Dubuque Municipal Arpt","US","IA","","DBQ","",2,42.4,-90.71
"ap/DBV","DBV","Dubrovnik Arpt","HR","","","DBV","",2,42.56,18.26
"ap/DBY","DBY","Dalby","AU","QL","","DBY","QHF",9,-27.18,151.25
"ap/DCA","DCA","Washington - National airport","US","DC","WAS","WAS","",2,38.84,-77.04
"ap/DCF","DCF","Canefield Arpt","DM","","","DOM","QHF",2,15.38,-61.4
"ap/DCM","DCM","Mazamet Arpt","FR","","","DCM","QHF",2,43.55,2.28
"ap/DCU","DCU","Pyor Arpt","US","AL","","DCU","",9,34.6,-86.98
"ap/DDC","DDC","Dodge City Municipal Arpt","US","KS","","DDC","",2,37.76,-99.96
"ap/DDG","DDG","Dandong Arpt","CN","","","DDG","QHF",2,40.2,124.25
"ap/DDI","DDI","Daydream Island Arpt","AU","QL","","DDI","QHF",2,-20.16,148.18
"ap/DEB","DEB","Debrecen Arpt","HU","","","DEB","QHF",3,47.46,21.48
"ap/DEC","DEC","Decatur Municipal","US","IL","","DEC","",2,39.83,-88.85
"ap/DED","DED","Jolly Grant Airport","IN","","","DED","QHF",9,30.18,78.18
"ap/DEH","DEH","Decorah Municipal","US","IA","","DEH","",9,43.27,-91.73
"ap/DEL","DEL","Delhi Indira Gandhi Intl","IN","","","DEL","",2,28.56,77.11
"ap/DEN","DEN","Denver Intl Arpt","US","CO","","DEN","",2,39.84,-104.67
"ap/DET","DET","Detroit City Apt","US","MI","","DTT","",9,42.4,-83
"ap/DEZ","DEZ","Al Jafrah Arpt","SY","","","DEZ","QHF",2,35.28,40.17
"ap/DFI","DFI","Defiance Memorial Arpt","US","OH","","DFI","",9,41.36,-84.42
"ap/DFW","DFW","Dallas Ft Worth Intl","US","TX","QDF","DFW","",2,32.89,-97.04
"ap/DGE","DGE","Mudgee Arpt","AU","NS","","DGE","QHF",2,-32.78,149.16
"ap/DGM","DGM","Dongguan Arpt","CN","","","DGM","",9,23.02,113.73
"ap/DGO","DGO","Guadalupe Victoria Arpt","MX","","","DGO","",2,24.03,-104.66
"ap/DGP","DGP","Daugavpils Arpt","LV","","","DGP","",9,55.93,29.68
"ap/DHA","DHA","Dhahran Intl","SA","","","DHA","",9,26.26,50.15
"ap/DHM","DHM","Gaggal Arpt","IN","","","DHM","QHF",9,32.3,76.26
"ap/DHN","DHN","Dothan Municipal","US","AL","","DHN","",2,31.31,-85.45
"ap/DIB","DIB","Chabua Arpt","IN","","","DIB","QHF",2,27.48,95.02
"ap/DIE","DIE","Antsiranana Arrachart Arpt","MG","","","DIE","",2,-12.34,49.29
"ap/DIG","DIG","Diging Arpt","CN","","","DIG","QHF",2,27.78,99.67
"ap/DIJ","DIJ","Longvic Airport","FR","","","DIJ","",2,47.26,5.08
"ap/DIK","DIK","Dickinson Municipal","US","ND","","DIK","",2,46.79,-102.8
"ap/DIL","DIL","Comoro Arpt","TL","","","DIL","",2,-8.55,125.55
"ap/DIN","DIN","Gialam Arpt","VN","","","DIN","",2,21.38,103
"ap/DIR","DIR","Aba Tenna D Yilma Arpt","ET","","","DIR","QHF",2,9.62,41.85
"ap/DIU","DIU","Diu Arpt","IN","","","DIU","QHF",2,20.69,70.89
"ap/DIY","DIY","Diyarbakir Arpt","TR","","","DIY","QHF",2,37.89,40.2
"ap/DJB","DJB","Sultan Taha Syarifudin Arpt","ID","","","DJB","",2,-1.66,103.58
"ap/DJE","DJE","Melita Airport","TN","","","DJE","",2,33.88,10.78
"ap/DKI","DKI","Dunk Island Arpt","AU","QL","","DKI","QHF",2,-17.95,146.15
"ap/DKR","DKR","Leopold Sedar Senghor Arpt","SN","","","DKR","",2,14.75,-17.5
"ap/DLA","DLA","Douala Arpt","CM","","","DLA","",2,4.01,9.71
"ap/DLC","DLC","Dalian Arpt","CN","","","DLC","",2,38.96,121.55
"ap/DLD","DLD","Dagali Arpt","NO","","","DLD","",2,60.46,8.5
"ap/DLE","DLE","Tavaux Arpt","FR","","","DLE","",9,47.03,5.11
"ap/DLG","DLG","Dillingham Municipal Arpt","US","AK","","DLG","QHF",2,59.04,-158.5
"ap/DLH","DLH","Duluth Intl","US","MN","","DLH","",2,46.83,-92.18
"ap/DLI","DLI","Lienkhang","VN","","","DLI","",2,11.75,108.34
"ap/DLL","DLL","Dillon Arpt","US","SC","","DLL","",9,34.45,-79.36
"ap/DLM","DLM","Dalman Airport","TR","","","DLM","",2,36.71,28.78
"ap/DLP","DLP","Disneyland Paris Heliport","FR","","","PAR","",8,48.86,2.8
"ap/DLS","DLS","The Dalles Municipal Arpt","US","OR","","DLS","",9,45.61,-121.16
"ap/DLU","DLU","Dali Arpt","CN","","","DLU","QHF",2,25.66,100.31
"ap/DMD","DMD","Doomadgee Arpt","AU","QL","","DMD","QHF",2,-18,138.83
"ap/DME","DME","Domodedovo Arpt","RU","","MOW","MOW","",2,55.4,37.88
"ap/DMK","DMK","Don Mueang International Arpt","TH","","","BKK","QHF",3,13.92,100.61
"ap/DMM","DMM","King Fahad Arpt","SA","","","DMM","QHF",2,26.47,49.79
"ap/DMO","DMO","Sedalia Memorial Arpt","US","MO","","DMO","",9,38.7,-93.17
"ap/DND","DND","Riverside Park Arpt","GB","","","DND","",2,56.45,-3.02
"ap/DNH","DNH","Dunhuang Arpt","CN","","","DNH","QHF",2,40.16,94.68
"ap/DNK","DNK","Dnepropetrovsk Arpt","UA","","","DNK","",2,48.52,35.06
"ap/DNL","DNL","Daniel Airport","US","GA","","AGS","",9,33.46,-82.03
"ap/DNM","DNM","Denham Arpt","AU","WA","","DNM","QHF",2,-25.91,113.53
"ap/DNQ","DNQ","Denilinquin Arpt","AU","NS","","DNQ","QHF",9,-35.55,144.95
"ap/DNR","DNR","Pleurtuit Arpt","FR","","","DNR","",2,48.58,-2.14
"ap/DNV","DNV","Vermillion Cty","US","IL","","DNV","",9,40.02,-87.58
"ap/DNZ","DNZ","Cardak Arpt","TR","","","DNZ","",2,37.78,29.7
"ap/DOC","DOC","Dornoch Arpt","GB","","","DOC","",9,57.88,-4.08
"ap/DOH","DOH","Doha International Arpt","QA","","","DOH","QHF",2,25.25,51.56
"ap/DOK","DOK","Donetsk Arpt","UA","","","DOK","",2,48.08,37.75
"ap/DOL","DOL","Saint Gatien Arpt","FR","","","DOL","",2,49.36,0.15
"ap/DOM","DOM","Melville Hall Arpt","DM","","","DOM","QHF",2,15.54,-61.3
"ap/DOV","DOV","Dover AFB","US","DE","","DOV","",9,39.13,-75.46
"ap/DOX","DOX","Dongara","AU","WA","","DOX","QHF",9,-29.25,114.93
"ap/DPA","DPA","Dupage County Arpt","US","IL","","CHI","",9,41.9,-88.25
"ap/DPE","DPE","Dieppe Arpt","FR","","","DPE","",9,49.93,1.08
"ap/DPL","DPL","Dipolog Arpt","PH","","","DPL","QHF",2,8.6,123.34
"ap/DPO","DPO","Devonport Arpt","AU","TS","","DPO","QHF",2,-41.18,146.35
"ap/DPS","DPS","Ngurah Rai Arpt","ID","","","DPS","",2,-8.82,115.14
"ap/DRB","DRB","Derby Airport","AU","WA","","DRB","QHF",2,-17.36,123.65
"ap/DRO","DRO","Durango La Plata Cty Arpt","US","CO","","DRO","",2,37.15,-107.75
"ap/DRS","DRS","Dresden Arpt","DE","","","DRS","",2,51.12,13.76
"ap/DRT","DRT","International Del Rio","US","TX","","DRT","",2,29.36,-100.9
"ap/DRW","DRW","Darwin Airport","AU","NT","","DRW","QHF",2,-12.41,130.87
"ap/DSA","DSA","Finningley Arpt","GB","","","DSA","QHF",2,53.46,-1
"ap/DSD","DSD","La Desirade Arpt","GP","","","DSD","",2,16.3,-61.08
"ap/DSI","DSI","Destin Arpt","US","FL","","DSI","",9,30.4,-86.46
"ap/DSM","DSM","Des Moines Municipal Airport","US","IA","","DSM","",2,41.53,-93.64
"ap/DTM","DTM","Wickede Dortmund Arpt","DE","","","DTM","",2,51.51,7.61
"ap/DTW","DTW","Detroit Metro Wayne Cnty Arpt","US","MI","","DTT","QHF",2,42.22,-83.34
"ap/DUB","DUB","Dublin Arpt","IE","","","DUB","",2,53.43,-6.24
"ap/DUC","DUC","Halliburton Arpt","US","OK","","DUC","QHF",9,34.46,-97.96
"ap/DUD","DUD","Momona Airport","NZ","","","DUD","",2,-45.92,170.19
"ap/DUG","DUG","Bisbee Douglas Intl","US","AZ","","DUG","",9,31.45,-109.59
"ap/DUJ","DUJ","Dubois Jefferson Cty Arpt","US","PA","","DUJ","",2,41.18,-78.89
"ap/DUQ","DUQ","Duncan/Quam Rail Station","CA","BC","","DUQ","",6,48.78,-123.7
"ap/DUR","DUR","Durban International","ZA","","","DUR","QHF",2,-29.96,30.95
"ap/DUS","DUS","Dusseldorf Arpt","DE","","","DUS","",2,51.28,6.76
"ap/DUT","DUT","Emergency Field","US","AK","","DUT","",2,53.9,-166.53
"ap/DVL","DVL","Devils Lake Arpt","US","ND","","DVL","",2,48.11,-98.85
"ap/DVN","DVN","Davenport Airport","US","IA","","DVN","QHF",9,41.61,-90.58
"ap/DVO","DVO","Mati Airport","PH","","","DVO","",2,7.13,125.65
"ap/DVX","DVX","Delaware Airpark","US","DE","","DOV","",9,39.18,-75.53
"ap/DWH","DWH","David Wayne Hooks Arpt","US","TX","","HOU","",9,30.06,-95.55
"ap/DWN","DWN","Downtown Airpark","US","OK","","OKC","",9,35.45,-97.53
"ap/DXB","DXB","Dubai Intl Arpt","AE","","","DXB","",2,25.25,55.32
"ap/DXR","DXR","Danbury Municipal Arpt","US","CT","","DXR","",9,41.38,-73.45
"ap/DYG","DYG","Dayong Arpt","CN","","","DYG","",2,29.16,110.33
"ap/DYL","DYL","Doylestown Arpt","US","PA","","DYL","",9,40.32,-75.12
"ap/DYR","DYR","Anadyr Arpt","RU","","","DYR","QHF",2,64.73,177.75
"ap/DYU","DYU","Dushanbe Arpt","TJ","","","DYU","QHF",2,38.54,68.82
"ap/DZA","DZA","Dzaoudzi Arpt","YT","","","DZA","QHF",2,-12.8,45.28
"ap/EAA","EAA","Eagle Airport","US","AK","","EAA","",2,64.77,-141.15
"ap/EAM","EAM","Nejran Arpt","SA","","","EAM","",2,17.61,44.42
"ap/EAR","EAR","Kearney Municipal Arrpt","US","NE","","EAR","",2,40.72,-99.01
"ap/EAS","EAS","San Sebastian Arpt","ES","","","EAS","",2,43.35,-1.79
"ap/EAT","EAT","Pangborn Memorial Fld","US","WA","","EAT","",2,47.4,-120.2
"ap/EAU","EAU","Claire Municipal Airport","US","WI","","EAU","",2,44.86,-91.49
"ap/EBA","EBA","Marina Di Campo Arpt","IT","","","EBA","QHF",9,42.76,10.23
"ap/EBB","EBB","Entebbe Airport","UG","","","EBB","",2,0.05,32.45
"ap/EBJ","EBJ","Esbjerg Arpt","DK","","","EBJ","",2,55.52,8.55
"ap/EBL","EBL","Erbil Arpt","IQ","","","EBL","QHF",3,36.24,43.24
"ap/EBO","EBO","Ebon Arpt","MH","","","EBO","QHF",2,4.6,168.75
"ap/EBR","EBR","Baton Rouge Downtown Arpt","US","LA","","BTR","",9,30,-91
"ap/EBU","EBU","Boutheon Arpt","FR","","","EBU","",2,45.56,4.4
"ap/ECG","ECG","Elizabeth Municipal Cgas","US","NC","","ECG","",9,36.26,-76.17
"ap/ECH","ECH","Echuca Arpt","AU","VI","","ECH","QHF",9,-36.16,144.78
"ap/ECN","ECN","Ercan Airport","CY","","","ECN","QHF",2,35.15,33.48
"ap/EDE","EDE","Edenton Municipal Arpt","US","NC","","EDE","QHF",2,36.06,-76.65
"ap/EDI","EDI","Edinburgh Arpt","GB","","","EDI","QHF",2,55.94,-3.36
"ap/EDL","EDL","Eldoret Arpt","KE","","","EDL","",2,-0.53,35.28
"ap/EDM","EDM","Les Ajoncs Arpt","FR","","","EDM","",9,46.7,-1.38
"ap/EDR","EDR","Edward River Arpt","AU","QL","","EDR","QHF",2,-14.9,141.61
"ap/EED","EED","Needles Arpt","US","CA","","EED","",9,34.76,-115.62
"ap/EEN","EEN","Dilliant Hopkins Arpt","US","NH","","EEN","",9,42.9,-72.26
"ap/EFD","EFD","Ellington Field","US","TX","QHO","HOU","",2,29.6,-95.15
"ap/EFL","EFL","Argostoli Arpt","GR","","","EFL","QHF",2,38.11,20.5
"ap/EGC","EGC","Roumaniere Arpt","FR","","","EGC","",2,44.85,0.48
"ap/EGE","EGE","Eagle County Arpt","US","CO","","EGE","",2,39.64,-106.91
"ap/EGI","EGI","Duke Field","US","FL","","VPS","QHF",9,30.65,-86.52
"ap/EGM","EGM","Sege Arpt","SB","","","EGM","QHF",3,-8.56,157.86
"ap/EGO","EGO","Belgorod Arpt","RU","","","EGO","QHF",9,50.63,36.6
"ap/EGP","EGP","Maverick County Arpt","US","TX","","EGP","",9,28.86,-100.53
"ap/EGS","EGS","Egilsstadir Arpt","IS","","","EGS","",2,65.27,-14.4
"ap/EGV","EGV","Eagle River Union Arpt","US","WI","","EGV","",2,45.93,-89.26
"ap/EHL","EHL","El Bolson Arpt","AR","","","EHL","QHF",2,-41.96,-71.51
"ap/EHT","EHT","Rentschler Arpt","US","CT","","EHT","",9,41.76,-72.65
"ap/EIB","EIB","Eisenach Arpt","DE","","","EIB","",9,50.98,10.48
"ap/EIN","EIN","Welschap Arpt","NL","","","EIN","",2,51.44,5.38
"ap/EIS","EIS","Beef Island Arpt","VG","","","EIS","",2,18.45,-64.55
"ap/EJA","EJA","Variguies Arpt","CO","","","EJA","QHF",2,7.01,-73.79
"ap/EKI","EKI","Elkhart Municipal Arpt","US","IN","","EKI","",9,41.75,-85.99
"ap/EKN","EKN","Randolph County Arpt","US","WV","","EKN","",9,38.92,-79.85
"ap/EKO","EKO","J C Harris Field","US","NV","","EKO","",2,40.82,-115.78
"ap/EKT","EKT","Eskilstuna Arpt","SE","","","EKT","",2,59.38,16.45
"ap/EKX","EKX","Addington Field","US","KY","","EKX","",9,37.68,-85.92
"ap/ELD","ELD","Goodwin Field","US","AR","","ELD","",2,33.21,-92.81
"ap/ELH","ELH","North Eleuthera Intl","BS","","","ELH","",2,25.48,-76.68
"ap/ELK","ELK","Elk City Municipal","US","OK","","ELK","",9,35.41,-99.4
"ap/ELM","ELM","Elmira Corning Regional Arpt","US","NY","","ELM","",2,42.16,-76.89
"ap/ELP","ELP","El Paso Intl Arpt","US","TX","","ELP","",2,31.79,-106.39
"ap/ELQ","ELQ","Gassim Arpt","SA","","","ELQ","QHF",2,26.3,43.77
"ap/ELS","ELS","East London Arpt","ZA","","","ELS","",2,-33.03,27.82
"ap/ELY","ELY","Yelland Field","US","NV","","ELY","",2,39.29,-114.84
"ap/EMA","EMA","East Midlands Arpt","GB","","","XNM","",2,52.82,-1.32
"ap/EMD","EMD","Emerald Arpt","AU","QL","","EMD","QHF",2,-23.57,148.18
"ap/EMT","EMT","El Monte Arpt","US","CA","","EMT","",9,34.08,-118.03
"ap/ENA","ENA","Kenai Municipal Arpt","US","AK","","ENA","QHF",2,60.56,-151.24
"ap/ENC","ENC","Essey Airport","FR","","","ENC","",9,48.69,6.23
"ap/ENK","ENK","St Angelo Arpt","IE","","","ENK","",9,54.35,-7.63
"ap/ENL","ENL","Centralia Municipal Arpt","US","IL","","ENL","",9,38.51,-89.09
"ap/ENS","ENS","Twente Airport","NL","","","ENS","",2,52.27,6.87
"ap/ENW","ENW","Kenosha Municipal Arpt","US","WI","","ENW","",2,42.56,-87.85
"ap/ENY","ENY","Yanan Arpt","CN","","","ENY","QHF",3,36.63,109.55
"ap/EOH","EOH","Enrique Olaya Herrara","CO","","","MDE","",2,6.21,-75.58
"ap/EOI","EOI","Eday Arpt","GB","","","EOI","",2,59.2,-2.78
"ap/EOK","EOK","Keokuk Arpt","US","IA","","EOK","",9,40.45,-91.42
"ap/EPL","EPL","Mirecourt Arpt","FR","","","EPL","",2,48.18,6.45
"ap/EPR","EPR","Esperance Arpt","AU","WA","","EPR","QHF",2,-33.86,121.9
"ap/EPS","EPS","El Portillo Arpt","DO","","","EPS","",2,19.25,-69.5
"ap/EPU","EPU","Parnu Arpt","EE","","","EPU","QHF",2,58.41,24.47
"ap/EQS","EQS","Esquel Airport","AR","","","EQS","",2,-42.9,-71.13
"ap/ERC","ERC","Erzincan Arpt","TR","","","ERC","",2,39.71,39.51
"ap/ERF","ERF","Erfurt Arpt","DE","","","ERF","",2,50.98,10.96
"ap/ERI","ERI","Erie Intl","US","PA","","ERI","",2,42.07,-80.18
"ap/ERS","ERS","Eros Arpt","NA","","","WDH","",2,-22.61,17.08
"ap/ERZ","ERZ","Erzurum Arpt","TR","","","ERZ","QHF",2,39.95,41.17
"ap/ESB","ESB","Esenboga Arpt","TR","","","ANK","",2,40.13,33
"ap/ESC","ESC","Delta County","US","MI","","ESC","",2,45.71,-87.08
"ap/ESD","ESD","Eastsound Orcas Is Arpt","US","WA","","ESD","",2,48.7,-122.91
"ap/ESE","ESE","Ensenada Arpt","MX","","","ESE","",9,31.8,-116.6
"ap/ESF","ESF","Esler Field","US","LA","","AEX","",9,31.39,-92.3
"ap/ESL","ESL","Elista Arpt","RU","","","ESL","",2,46.3,44.23
"ap/ESN","ESN","Easton Municipal Arpt","US","MD","","ESN","",9,38.8,-76.06
"ap/ESP","ESP","Birchwood Pocono Arpt","US","PA","","ESP","",9,41.06,-75.02
"ap/ESR","ESR","El Salvador Arpt","CL","","","ESR","",2,-26.31,-69.76
"ap/ESS","ESS","Essen Arpt","DE","","","ESS","",2,51.36,6.95
"ap/ESU","ESU","Essaouira Arpt","MA","","","ESU","",9,31.4,-9.68
"ap/ETB","ETB","West Bend Arpt","US","WI","","ETB","",9,43.42,-88.12
"ap/ETH","ETH","Elat Airport","IL","","","ETH","",2,29.5,34.92
"ap/ETS","ETS","Enterprise Municipal","US","AL","","ETS","",9,31.29,-85.9
"ap/ETZ","ETZ","Metz Nancy Lorraine","FR","","","MZM","",2,48.98,6.25
"ap/EUF","EUF","Weedon Field","US","AL","","EUF","",9,31.95,-85.12
"ap/EUG","EUG","Eugene Arpt","US","OR","","EUG","",2,44.12,-123.21
"ap/EUN","EUN","Hassan I Arpt","MA","","","EUN","",2,27.15,-13.2
"ap/EUX","EUX","Roosevelt Field","AN","","","EUX","",2,17.5,-62.96
"ap/EVE","EVE","Evenes Arpt","NO","","","EVE","",2,68.46,16.7
"ap/EVG","EVG","Sveg Arpt","SE","","","EVG","",2,62.03,14.33
"ap/EVM","EVM","Eveleth Virginia Municipal Arpt","US","MN","","EVM","",9,47.42,-92.49
"ap/EVN","EVN","Yerevan Arpt","AM","","","EVN","",2,40.15,44.4
"ap/EVV","EVV","Evansville Regional Arpt","US","IN","","EVV","",2,38.03,-87.53
"ap/EVW","EVW","Evanston Arpt","US","WY","","EVW","QHF",9,41.26,-111.03
"ap/EVX","EVX","Evreux Arpt","FR","","","EVX","",9,49.05,1.18
"ap/EWB","EWB","New Bedford Municipal","US","MA","","EWB","",2,41.68,-70.96
"ap/EWK","EWK","Newton City County Arpt","US","KS","","EWK","",9,38.05,-97.27
"ap/EWN","EWN","Simmons Nott Arpt","US","NC","","EWN","",2,35.07,-77.04
"ap/EWR","EWR","New York - Newark airport","US","NJ","","EWR","QHF",2,40.69,-74.17
"ap/EXI","EXI","Excursion Inlet Municipal","US","AK","","EXI","",2,58.41,-135.43
"ap/EXM","EXM","Exmouth Gulf","AU","WA","","EXM","QHF",9,-22.38,114.1
"ap/EXT","EXT","Exeter Arpt","GB","","","EXT","",2,50.73,-3.41
"ap/EYW","EYW","Key West Intl","US","FL","","EYW","",2,24.55,-81.75
"ap/EZE","EZE","Ministro Pistarini","AR","","BUE","BUE","",2,-34.81,-58.54
"ap/EZS","EZS","Elazig Arpt","TR","","","EZS","",2,38.6,39.29
"ap/FAB","FAB","Farnborough Arpt","GB","","","FAB","QHF",9,51.28,-0.76
"ap/FAE","FAE","Faeroe Airport","DK","","","FAE","",2,62.06,-7.26
"ap/FAI","FAI","Fairbanks Intl Arpt","US","AK","","FAI","",2,64.81,-147.85
"ap/FAJ","FAJ","Fajardo Arpt","US","PR","","FAJ","",2,18.38,-65.75
"ap/FAO","FAO","Faro Airport","PT","","","FAO","",2,37.01,-7.96
"ap/FAR","FAR","Hector Airport","US","ND","","FAR","",2,46.9,-96.8
"ap/FAT","FAT","Fresno Air Terminal","US","CA","","FAT","",2,36.76,-119.71
"ap/FAY","FAY","Fayetteville Municipal","US","NC","","FAY","",2,34.99,-78.88
"ap/FBM","FBM","Luano","CD","","","FBM","",2,-11.58,27.51
"ap/FCA","FCA","Glacier Park Intl","US","MT","","FCA","",2,48.3,-114.25
"ap/FCB","FCB","Ficksburg Sentra Oes","ZA","","","FCB","",9,-28.82,27.9
"ap/FCH","FCH","Fresno Chandler Arpt","US","CA","","FAT","",9,36.73,-119.81
"ap/FCM","FCM","Flying Cloud Arpt","US","MN","","MSP","",9,44.82,-93.45
"ap/FCN","FCN","Cuxhaven Nordholz Arpt","DE","","","FCN","QHF",9,53.76,8.65
"ap/FCO","FCO","Fiumicino Arpt","IT","","ROM","ROM","",1,41.81,12.25
"ap/FCY","FCY","Forrest City Municipal Arpt","US","AR","","FCY","",9,34.94,-90.77
"ap/FDE","FDE","Bringeland Arpt","NO","","","FDE","QHF",2,61.45,5.84
"ap/FDF","FDF","Lamentin Arpt","MQ","","","FDF","",2,14.58,-61
"ap/FDH","FDH","Friedrichshafen Lowenthal","DE","","","FDH","",2,47.66,9.51
"ap/FDK","FDK","Frederick Municipal","US","MD","","FDK","",9,39.41,-77.38
"ap/FEN","FEN","Fernando De Noronha Arpt","BR","","","FEN","",2,-3.85,-32.41
"ap/FEZ","FEZ","Fez Airport","MA","","","FEZ","",2,34,-4.85
"ap/FFM","FFM","Fergus Falls Municipal","US","MN","","FFM","",9,46.28,-96.15
"ap/FGI","FGI","Fagali Arpt","WS","","","APW","QHF",2,-13.84,-171.74
"ap/FHU","FHU","Sierra Vista Municipal","US","AZ","","FHU","",2,31.58,-110.34
"ap/FIE","FIE","Fair Isle Arpt","GB","","","FIE","",2,59.5,-1.66
"ap/FIH","FIH","Kinshasa Arpt","CD","","","FIH","",2,-4.38,15.43
"ap/FJR","FJR","Fujairah Intl Arpt","AE","","","FJR","QHF",2,25.11,56.33
"ap/FKB","FKB","Soellingen Arpt","DE","","","FKB","",2,48.78,8.08
"ap/FKL","FKL","Chess Lamberton Arpt","US","PA","","FKL","",2,41.37,-79.85
"ap/FKS","FKS","Fukushima Arpt","JP","","","FKS","",2,37.22,140.43
"ap/FLB","FLB","Cangapara Arpt","BR","","","FLB","",9,-6.83,-43
"ap/FLC","FLC","Falls Creek Arpt","AU","","","FLC","QHF",9,-34.98,150.6
"ap/FLF","FLF","Schaferhaus Arpt","DE","","","FLF","QHF",9,54.77,9.37
"ap/FLG","FLG","Flagstaff Arpt","US","AZ","","FLG","",2,35.13,-111.67
"ap/FLL","FLL","Ft Lauderdale Hollywood Intl Arpt","US","FL","QMI","FLL","",2,26.07,-80.14
"ap/FLN","FLN","Hercilio Luz Arpt","BR","","","FLN","",2,-27.66,-48.55
"ap/FLO","FLO","Gilbert Field","US","SC","","FLO","",2,34.19,-79.72
"ap/FLP","FLP","Flippin Arpt","US","AR","","FLP","QHF",2,36.3,-92.58
"ap/FLR","FLR","Amerigo Vespucci Arpt","IT","","","FLR","",2,43.8,11.2
"ap/FLW","FLW","Aerodromo Das Flores","PT","","","FLW","",2,39.46,-31.15
"ap/FLX","FLX","Fallon Municipal Arpt","US","NV","","NFL","",9,39.49,-118.74
"ap/FMA","FMA","El Pucu Arpt","AR","","","FMA","",2,-26.2,-58.23
"ap/FMH","FMH","Otis AFB","US","MA","","FMH","",9,41.56,-70.63
"ap/FMN","FMN","Four Corners Regional Arpt","US","NM","","FMN","",2,36.73,-108.22
"ap/FMO","FMO","Muenster Airport","DE","","","FMO","",2,52.13,7.68
"ap/FMS","FMS","Fort Madison Municipal","US","IA","","FMS","",9,40.65,-91.31
"ap/FMY","FMY","Page Field","US","FL","","FMY","",2,26.59,-81.85
"ap/FNA","FNA","Lungi Intl Arpt","SL","","","FNA","QHF",2,8.61,-13.19
"ap/FNC","FNC","Madeira Arpt","PT","","","FNC","QHF",2,32.68,-16.77
"ap/FNI","FNI","Nimes Airport","FR","","","FNI","",2,43.74,4.41
"ap/FNJ","FNJ","Sunan Arpt","KP","","","FNJ","",2,39.03,125.78
"ap/FNL","FNL","Municipal Airport","US","CO","","FNL","",3,40.45,-105
"ap/FNT","FNT","Bishop Intl Arpt","US","MI","","FNT","",2,42.97,-83.73
"ap/FOC","FOC","Fuzhou Arpt","CN","","","FOC","QHF",2,26.1,119.28
"ap/FOD","FOD","Ft Dodge Municipal","US","IA","","FOD","",2,42.55,-94.18
"ap/FOE","FOE","Forbes Field","US","KS","","TOP","",2,38.95,-95.66
"ap/FOG","FOG","Gino Lisa Arpt","IT","","","FOG","",2,41.41,15.53
"ap/FOK","FOK","Suffolk County Arpt","US","NY","","FOK","QHF",9,40.83,-72.61
"ap/FOR","FOR","Pinto Martines Arpt","BR","","","FOR","",2,-3.77,-38.54
"ap/FOT","FOT","Forster","AU","NS","","FOT","QHF",9,-32.18,152.51
"ap/FPO","FPO","Grand Bahama Intl Arpt","BS","","","FPO","",2,26.55,-78.69
"ap/FPR","FPR","St Lucie County Arpt","US","FL","","FPR","",2,27.49,-80.36
"ap/FRA","FRA","Frankfurt Intl","DE","","","FRA","",2,50.04,8.57
"ap/FRD","FRD","Friday Harbor Airport","US","WA","","FRD","",2,48.52,-123.02
"ap/FRG","FRG","Republic Arpt","US","NY","","FRG","",9,40.73,-73.41
"ap/FRJ","FRJ","Frejus Arpt","FR","","","FRJ","",9,43.41,6.73
"ap/FRL","FRL","Luigi Ridolfi Arpt","IT","","","FRL","",9,44.21,12.05
"ap/FRM","FRM","Fairmont Municipal","US","MN","","FRM","",9,43.63,-94.4
"ap/FRO","FRO","Flora Arpt","NO","","","FRO","",2,61.58,5
"ap/FRR","FRR","Warren County Arpt","US","VA","","FRR","",9,38.91,-78.24
"ap/FRS","FRS","Flores Airport","GT","","","FRS","",2,16.91,-89.88
"ap/FRU","FRU","Bishkek Arpt","KG","","","FRU","",2,42.86,74.76
"ap/FRW","FRW","Francistown Arpt","BW","","","FRW","",2,-21.16,27.47
"ap/FRZ","FRZ","Fritzlar Airbase","DE","","","FRZ","",9,51.1,9.28
"ap/FSC","FSC","Sud Corse Arpt","FR","","","FSC","",2,41.83,9.08
"ap/FSD","FSD","Joe Foss Field","US","SD","","FSD","",2,43.58,-96.73
"ap/FSM","FSM","Ft Smith Municipal","US","AR","","FSM","",2,35.33,-94.36
"ap/FST","FST","Pecos County Arpt","US","TX","","FST","",9,30.91,-102.92
"ap/FTE","FTE","El Calafate Arpt","AR","","","FTE","",2,-50.27,-72.05
"ap/FTW","FTW","Meacham Field","US","TX","","FTW","",9,32.82,-97.36
"ap/FTY","FTY","Fulton Cty Arpt","US","GA","","ATL","",9,33.46,-84.31
"ap/FUE","FUE","Fuerteventura Arpt","ES","","","FUE","",2,28.45,-13.86
"ap/FUJ","FUJ","Fukue Arpt","JP","","","FUJ","QHF",2,32.66,128.83
"ap/FUK","FUK","Itazuke Arpt","JP","","","FUK","",2,33.58,130.45
"ap/FUL","FUL","Fullerton Municipal Arpt","US","CA","","FUL","",9,33.87,-117.97
"ap/FUN","FUN","Funafuti Intl Arpt","TV","","","FUN","",2,-8.53,179.2
"ap/FWA","FWA","Baer Field","US","IN","","FWA","",2,40.98,-85.14
"ap/FWM","FWM","Fort William Arpt","GB","","","FWM","",2,56.82,-5.1
"ap/FXE","FXE","Ft Lauderdale Excutive","US","FL","","FLL","",9,26.19,-80.17
"ap/FYV","FYV","Fayetteville Municipal Arpt","US","AR","","FYV","",2,36,-94.17
"ap/GAD","GAD","Gadsden Municipal","US","AL","","GAD","",9,33.97,-86.08
"ap/GAI","GAI","Montgomery Cty Arpt","US","MD","","GAI","",9,39.14,-77.2
"ap/GAJ","GAJ","Yamagata Airport","JP","","","GAJ","",2,38.41,140.37
"ap/GAL","GAL","Galena Arpt","US","AK","","GAL","",2,64.73,-156.93
"ap/GAR","GAR","Garaina Arpt","PG","","","GAR","QHF",9,-7.87,147.13
"ap/GAT","GAT","Tallard Arpt","FR","","","GAT","",9,44.45,6.01
"ap/GAU","GAU","Borjhar Arpt","IN","","","GAU","",2,26.1,91.58
"ap/GAY","GAY","Gaya Arpt","IN","","","GAY","",2,24.75,84.95
"ap/GBD","GBD","Greate Bend Municipal","US","KS","","GBD","",2,38.35,-98.85
"ap/GBE","GBE","Gaborone Arpt","BW","","","GBE","",2,-24.59,25.83
"ap/GBG","GBG","Galesburg Arpt","US","IL","","GBG","",9,40.94,-90.43
"ap/GBK","GBK","Gbangbatok Arpt","SL","","","GBK","",9,7.8,-12.38
"ap/GBN","GBN","San Giovanni Rotondo Arpt","IT","","","GBN","QHF",9,41.7,15.73
"ap/GBQ","GBQ","Muharraq Arpt","BH","","","BAH","QHF",3,26.25,50.61
"ap/GBR","GBR","Great Barrington Arpt","US","MA","","GBR","",9,42.18,-73.4
"ap/GBZ","GBZ","Great Barrier Island Arpt","NZ","","","GBZ","",9,-36.16,175.33
"ap/GCC","GCC","Campbell Cty Arpt","US","WY","","GCC","",2,44.34,-105.53
"ap/GCI","GCI","Guernsey Arpt","GB","","","GCI","QHF",2,49.43,-2.6
"ap/GCJ","GCJ","Grand Central Arpt","ZA","","","JNB","QHF",9,-26.98,28.14
"ap/GCK","GCK","Garden City Municipal","US","KS","","GCK","",2,37.92,-100.71
"ap/GCM","GCM","Owen Roberts Arpt","KY","","","GCM","",2,19.29,-81.36
"ap/GCN","GCN","Grand Canyon Natl Park Arpt","US","AZ","","GCN","",2,35.95,-112.13
"ap/GCV","GCV","Gravatai Arpt","BR","","","GCV","QHF",9,-29.94,-50.99
"ap/GCY","GCY","Municipal Greeneville Arpt","US","TN","","GCY","QHF",2,36.19,-82.81
"ap/GDL","GDL","Miguel Hidalgo Arpt","MX","","","GDL","",2,20.52,-103.31
"ap/GDN","GDN","Rebiechowo","PL","","","GDN","QHF",2,54.37,18.46
"ap/GDT","GDT","Grand Turk Is Arpt","TC","","","GDT","QHF",2,21.44,-71.14
"ap/GDX","GDX","Magadan Arpt","RU","","","GDX","",2,59.91,150.71
"ap/GEA","GEA","Magenta Arpt","NC","","","NOU","",2,-22.26,166.47
"ap/GED","GED","Sussex County Arpt","US","DE","","GED","",9,38.69,-75.38
"ap/GEG","GEG","Spokane Intl Arpt","US","WA","","GEG","",2,47.62,-117.53
"ap/GEO","GEO","Cheddi Jagan Intl","GY","","","GEO","QHF",2,6.5,-58.25
"ap/GER","GER","Rafael Cabrera Arpt","CU","","","GER","",2,21.83,-82.78
"ap/GES","GES","Buayan Arpt","PH","","","GES","QHF",2,6.1,125.23
"ap/GET","GET","Geraldton Arpt","AU","WA","","GET","QHF",2,-28.79,114.7
"ap/GEV","GEV","Gallivare Arpt","SE","","","GEV","",2,67.11,20.98
"ap/GEX","GEX","Geelong Arpt","AU","VI","","GEX","QHF",9,-38.13,144.35
"ap/GFD","GFD","Pope Field Arpt","US","IN","","GFD","",9,39.79,-85.73
"ap/GFF","GFF","Griffith Arpt","AU","NS","","GFF","QHF",2,-34.25,146.06
"ap/GFK","GFK","Grand Forks Mark Andrews Intl","US","ND","","GFK","",2,47.94,-97.17
"ap/GFL","GFL","Warren County","US","NY","","GFL","",9,43.33,-73.6
"ap/GFN","GFN","Grafton Arpt","AU","NS","","GFN","QHF",2,-29.75,153.03
"ap/GGE","GGE","George Town Arpt","US","SC","","MYR","",9,33.3,-79.31
"ap/GGG","GGG","Greg County Arpt","US","TX","","GGG","",2,32.38,-94.71
"ap/GGT","GGT","George Town Airport","BS","","","GGT","QHF",2,23.46,-75.78
"ap/GGW","GGW","International Glasgow","US","MT","","GGW","",2,48.19,-106.63
"ap/GHA","GHA","Noumerate Arpt","DZ","","","GHA","",2,32.38,3.8
"ap/GHB","GHB","Governors Harbour Municipal Arpt","BS","","","GHB","",2,25.15,-76.18
"ap/GIB","GIB","North Front Arpt","GI","","","GIB","",2,36.15,-5.35
"ap/GIC","GIC","Boigu Island Arpt","AU","QL","","GIC","QHF",2,-9.26,142.2
"ap/GIF","GIF","Gilbert Fld","US","FL","","GIF","",9,28.06,-81.75
"ap/GIG","GIG","Rio Internacional","BR","","RIO","RIO","",2,-22.8,-43.26
"ap/GIL","GIL","Gilgit Arpt","PK","","","GIL","",2,35.91,74.38
"ap/GIS","GIS","Gisborne Arpt","NZ","","","GIS","",2,-38.66,178.01
"ap/GIZ","GIZ","Gizan Aprt","SA","","","GIZ","",2,16.93,42.56
"ap/GJT","GJT","Walker Field Arpt","US","CO","","GJT","",2,39.12,-108.52
"ap/GKA","GKA","Goroka Arpt","PG","","","GKA","",2,-6.05,145.38
"ap/GKT","GKT","Gatlinburg Arpt","US","TN","","GKT","",9,35.71,-83.51
"ap/GLA","GLA","Glasgow Intl","GB","","GLA","GLA","",2,55.86,-4.43
"ap/GLD","GLD","Goodland Municipal","US","KS","","GLD","",9,39.37,-101.7
"ap/GLE","GLE","Gainesville Municipal Arpt","US","TX","","GLE","",9,33.65,-97.2
"ap/GLH","GLH","Greenville Municipal","US","MS","","GLH","",2,33.48,-90.99
"ap/GLI","GLI","Glen Innes Arpt","AU","NS","","GLI","QHF",2,-29.73,151.73
"ap/GLL","GLL","Klanten Arpt","NO","","","GLL","",2,60.78,9.05
"ap/GLO","GLO","Staverton Arpt","GB","","","GLO","",9,51.89,-2.16
"ap/GLR","GLR","Otsego Arpt","US","MI","","GLR","",9,45.02,-84.67
"ap/GLS","GLS","Scholes Field","US","TX","","GLS","",9,29.26,-94.85
"ap/GLT","GLT","Gladstone Airport","AU","QL","","GLT","QHF",2,-23.87,151.22
"ap/GLW","GLW","Glasgow Municipal Arpt","US","KY","","GLW","QHF",2,37.03,-85.95
"ap/GME","GME","Gomel Arpt","BY","","","GME","",9,52.41,31
"ap/GMP","GMP","Gimpo Intl Arpt","KR","","","SEL","",2,37.55,126.79
"ap/GMU","GMU","Greenville Downtown Arpt","US","SC","","GSP","",9,34.84,-82.35
"ap/GMZ","GMZ","La Gomera Arpt","ES","","","GMZ","QHF",2,28.02,17.21
"ap/GNA","GNA","Grodna Arpt","BY","","","GNA","",9,53.66,23.81
"ap/GNB","GNB","Saint Geoirs Arpt","FR","","","GNB","",2,45.36,5.32
"ap/GND","GND","Port Saline Intl","GD","","","GND","QHF",2,12,-61.78
"ap/GNS","GNS","Gunungsitoli Arpt","ID","","","GNS","",9,1.28,97.61
"ap/GNV","GNV","Gainesville Regional","US","FL","","GNV","",2,29.69,-82.27
"ap/GNY","GNY","Guney Anadolu Airport","TR","","","GNY","QHF",9,37.43,38.88
"ap/GOA","GOA","Christoforo Colombo","IT","","","GOA","",2,44.41,8.83
"ap/GOH","GOH","Nuuk Arpt","GL","","","GOH","QHF",2,64.19,-51.68
"ap/GOI","GOI","Dabolim Arpt","IN","","","GOI","QHF",2,15.38,73.82
"ap/GOJ","GOJ","Nizhniy Novgorod Arpt","RU","","","GOJ","",2,56.33,44
"ap/GON","GON","Groton New London Arpt","US","CT","","GON","",2,41.33,-72.04
"ap/GOO","GOO","Goondiwindi Arpt","AU","QL","","GOO","QHF",9,-28.51,150.31
"ap/GOT","GOT","Landvetter Arpt","SE","","","GOT","",2,57.66,12.29
"ap/GOU","GOU","Garoua Arpt","CM","","","GOU","",2,9.33,13.37
"ap/GOV","GOV","Nhulunbuy Arpt","AU","NT","","GOV","QHF",2,-12.16,136.66
"ap/GPA","GPA","Araxos Arpt","GR","","","GPA","QHF",2,38.15,21.42
"ap/GPS","GPS","Baltra Arpt","EC","","","GPS","",9,-0.43,-90.28
"ap/GPT","GPT","Biloxi Regional Arpt","US","MS","","GPT","",2,30.4,-89.06
"ap/GPZ","GPZ","Itasca County","US","MN","","GPZ","",2,47.21,-93.51
"ap/GQQ","GQQ","Galion Municipal Arpt","US","OH","","GQQ","",9,40.75,-82.72
"ap/GRB","GRB","Austin Straubel Fld","US","WI","","GRB","",2,44.49,-88.12
"ap/GRI","GRI","Hall Cty Regional","US","NE","","GRI","",2,40.97,-98.31
"ap/GRJ","GRJ","George Arpt","ZA","","","GRJ","",2,-33.96,22.41
"ap/GRK","GRK","Gray AAF","US","TX","","ILE","QHF",2,31.11,-97.75
"ap/GRO","GRO","Costa Brava Arpt","ES","","","GRO","",2,41.9,2.75
"ap/GRQ","GRQ","Eelde Arpt","NL","","","GRQ","",9,53.13,6.58
"ap/GRR","GRR","Kent County Intl","US","MI","","GRR","",2,42.88,-85.53
"ap/GRS","GRS","Baccarini Arpt","IT","","","GRS","QHF",9,42.76,11.07
"ap/GRU","GRU","Guarulhos Arpt","BR","","SAO","SAO","",2,-23.43,-46.47
"ap/GRW","GRW","Graciosa Arpt","PT","","","GRW","",2,39.06,-28
"ap/GRX","GRX","Granada Arpt","ES","","","GRX","",2,37.18,-3.78
"ap/GRZ","GRZ","Thalerhof Arpt","AT","","","GRZ","",2,46.99,15.43
"ap/GSB","GSB","Seymour Johnson AFB","US","NC","","GSB","",9,35,-78
"ap/GSE","GSE","Saeve Arpt","SE","","","GOT","QHF",2,57.77,11.87
"ap/GSO","GSO","Piedmont Triad Intl","US","NC","","GSO","",2,36.09,-79.95
"ap/GSP","GSP","Greenville Spartanburg Arpt","US","SC","","GSP","",2,34.89,-82.21
"ap/GST","GST","Gustavus Arpt","US","AK","","GST","",2,58.42,-135.7
"ap/GSY","GSY","Binbrook Arpt","GB","","","GSY","",2,53.44,-0.2
"ap/GTF","GTF","Great Falls Intl Arpt","US","MT","","GTF","",2,47.48,-111.35
"ap/GTI","GTI","Guettin Arpt","DE","","","GTI","QHF",9,54.38,13.32
"ap/GTR","GTR","Golden Arpt","US","MS","","GTR","",2,33.45,-88.58
"ap/GTY","GTY","Gettysburg Arpt","US","PA","","GTY","",9,39.83,-77.23
"ap/GUA","GUA","La Aurora Arpt","GT","","","GUA","",2,14.58,-90.53
"ap/GUC","GUC","Gunnison Cty","US","CO","","GUC","",2,38.53,-106.93
"ap/GUF","GUF","Edwards Arpt","US","AL","","GUF","",9,30.29,-87.72
"ap/GUH","GUH","Gunnedah Airport","AU","NS","","GUH","QHF",9,-30.95,150.25
"ap/GUM","GUM","Antonio B Won Pat Intl","GU","","","GUM","",2,13.48,144.73
"ap/GUP","GUP","Gallup Municipal","US","NM","","GUP","",9,35.51,-108.77
"ap/GUR","GUR","Gurney Arpt","PG","","","GUR","",2,-10.33,150.35
"ap/GUT","GUT","Guetersloh Arpt","DE","","","GUT","",9,51.91,8.3
"ap/GUW","GUW","Atyrau Arpt","KZ","","","GUW","",2,47.11,51.9
"ap/GUY","GUY","Guymon Municipal Arpt","US","OK","","GUY","",2,36.68,-101.48
"ap/GVA","GVA","Geneve Cointrin","CH","","","GVA","",2,46.23,6.11
"ap/GVR","GVR","Governador Valadares Arpt","BR","","","GVR","QHF",2,-18.89,-41.98
"ap/GVX","GVX","Sandviken Arpt","SE","","","GVX","",9,60.59,16.95
"ap/GWE","GWE","Gweru Airport","ZW","","","GWE","QHF",9,-19.43,29.86
"ap/GWO","GWO","Leflore Arpt","US","MS","","GWO","",9,33.48,-90.18
"ap/GWS","GWS","Glenwood Springs Arpt","US","CO","","GWS","",9,39.5,-107.3
"ap/GWT","GWT","Westerland Airport","DE","","","GWT","",2,54.9,8.3
"ap/GWY","GWY","Carnmore Arpt","IE","","","GWY","",2,53.3,-8.94
"ap/GXQ","GXQ","Teniente Vidal Arpt","CL","","","GXQ","",9,-45.59,-72.1
"ap/GYD","GYD","Heydar Aliyev Intl Arpt","AZ","","","BAK","QHF",2,40.5,49.98
"ap/GYE","GYE","Simon Bolivar Airport","EC","","","GYE","",2,-2.15,-79.88
"ap/GYI","GYI","Gisenyi Arpt","RW","","","GYI","QHF",2,-1.67,29.25
"ap/GYM","GYM","Gen Jose M Yanez Arpt","MX","","","GYM","",2,27.96,-110.93
"ap/GYN","GYN","Santa Genoveva","BR","","","GYN","",2,-16.66,-49.21
"ap/GYP","GYP","Gympie Arpt","AU","QL","","GYP","QHF",9,-26.28,152.7
"ap/GYR","GYR","Litchfield Goodyear Arpt","US","AZ","","GYR","",9,33.42,-112.36
"ap/GYS","GYS","Guang Yuan Arpt","CN","","","GYS","QHF",2,32.39,105.69
"ap/GYY","GYY","Gary International Arpt","US","IN","","GYY","QHF",9,41.61,-87.4
"ap/GZA","GZA","Gaza International Arpt","PS","","","GZA","QHF",2,31.24,34.27
"ap/GZM","GZM","Gozo Arpt","MT","","","GZM","",2,36.06,14.25
"ap/GZO","GZO","Gizo Arpt","SB","","","GZO","QHF",3,-8.1,156.86
"ap/GZT","GZT","Gaziantep Arpt","TR","","","GZT","",2,36.94,37.47
"ap/HAC","HAC","Hachijo Jima Arpt","JP","","","HAC","QHF",2,33.11,139.79
"ap/HAD","HAD","Halmstad Arpt","SE","","","HAD","",2,56.68,12.83
"ap/HAH","HAH","Prince Said Ibrahim In","KM","","","YVA","",2,-11.53,43.26
"ap/HAJ","HAJ","Hanover Arpt","DE","","","HAJ","",2,52.46,9.68
"ap/HAK","HAK","Haikou Arpt","CN","","","HAK","QHF",2,20.01,110.34
"ap/HAM","HAM","Fuhlsbuettel Arpt","DE","","","HAM","",2,53.63,10
"ap/HAN","HAN","Noibai Arpt","VN","","","HAN","QHF",2,21.03,105.89
"ap/HAP","HAP","Long Island Arpt","AU","QL","","HAP","QHF",2,-20.33,148.85
"ap/HAS","HAS","Hail Arpt","SA","","","HAS","QHF",2,27.6,41.68
"ap/HAU","HAU","Karmoy Arpt","NO","","","HAU","QHF",2,59.34,5.2
"ap/HAV","HAV","Jose Marti Intl Arpt","CU","","","HAV","",2,23,-82.4
"ap/HBA","HBA","Hobart International Arpt","AU","TS","","HBA","QHF",2,-42.83,147.5
"ap/HBE","HBE","Borg El Arab Arpt","EG","","","HBE","QHF",2,30.91,29.68
"ap/HBG","HBG","Bobby L Chain Municipal","US","MS","","HBG","",9,31.25,-89.25
"ap/HBI","HBI","Harbour Island Arpt","BS","","","HBI","",9,25.75,-77.86
"ap/HBT","HBT","Hafr Albatin Arpt","SA","","","HBT","",2,27.89,45.52
"ap/HCN","HCN","Hengchun Arpt","TW","","","HCN","",9,22,120.7
"ap/HDB","HDB","Heidelberg Arpt","DE","","","HDB","",2,49.41,8.71
"ap/HDD","HDD","Hyderabad","PK","","","HDD","QHF",9,25.32,68.36
"ap/HDF","HDF","Heringsdorf Arpt","DE","","","HDF","",2,54.3,11
"ap/HDN","HDN","Hayden Arpt","US","CO","","HDN","",2,40.48,-107.21
"ap/HDS","HDS","Hoedspruit Arpt","ZA","","","HDS","",2,-24.35,30.95
"ap/HDY","HDY","Hat Yai Arpt","TH","","","HDY","",2,6.93,100.39
"ap/HEH","HEH","Heho Arpt","MM","","","HEH","QHF",2,20.74,96.79
"ap/HEI","HEI","Heide Arpt","DE","","","HEI","",2,54.14,9.1
"ap/HEL","HEL","Helsinki Arpt","FI","","","HEL","",2,60.31,24.96
"ap/HER","HER","N Kazantzakis Arpt","GR","","","HER","",2,35.34,25.18
"ap/HET","HET","Hohhot Arpt","CN","","","HET","QHF",2,40.85,111.82
"ap/HEW","HEW","Athens Hellinikon Arpt","GR","","","ATH","",9,37.94,23.8
"ap/HEX","HEX","Herrera Arpt","DO","","","SDQ","QHF",3,18.47,-69.97
"ap/HEZ","HEZ","Natchez Adams Cty","US","MS","","HEZ","",9,31.61,-91.29
"ap/HFA","HFA","Haifa Arpt","IL","","","HFA","",2,32.8,35.05
"ap/HFD","HFD","Brainard Arpt","US","CT","","HFD","",9,41.64,-72.54
"ap/HFE","HFE","Hefei Arpt","CN","","","HFE","QHF",2,31.95,117.28
"ap/HFN","HFN","Hornafjordur Arpt","IS","","","HFN","",9,64.25,-15.18
"ap/HFT","HFT","Hammerfest Arpt","NO","","","HFT","",2,70.66,23.7
"ap/HGD","HGD","Hughenden Arpt","AU","QL","","HGD","QHF",2,-20.81,144.22
"ap/HGH","HGH","Hangzhou Arpt","CN","","","HGH","",2,30.33,120.23
"ap/HGL","HGL","Helgoland Arpt","DE","","","HGL","QHF",2,54.18,7.91
"ap/HGN","HGN","Mae Hong Son Arpt","TH","","","HGN","",2,19.26,97.93
"ap/HGR","HGR","Washington Cty Regional","US","MD","","HGR","",2,39.71,-77.72
"ap/HGU","HGU","Kagamuga Arpt","PG","","","HGU","",2,-5.86,144.21
"ap/HHA","HHA","Changsha Huanghua Arpt","CN","","","HHA","",9,28.18,113.21
"ap/HHE","HHE","Hachinohe Arpt","JP","","","HHE","QHF",9,40.55,141.48
"ap/HHH","HHH","Hilton Head Municipal","US","SC","","HHH","",2,32.22,-80.7
"ap/HHN","HHN","Hahn Arpt","DE","","","FRA","",2,49.94,7.25
"ap/HHQ","HHQ","Hua Hin Arpt","TH","","","HHQ","",2,12.63,99.95
"ap/HHR","HHR","Hawthorne Arpt","US","CA","","HHR","",2,33.92,-118.33
"ap/HIB","HIB","Hibbing Chisolm Arpt","US","MN","","HIB","",2,47.39,-92.84
"ap/HID","HID","Horn Island Arpt","AU","QL","","HID","QHF",2,-10.61,142.28
"ap/HII","HII","Lake Havasu City Municipal Airport","US","AZ","","HII","",2,34.56,-114.35
"ap/HIJ","HIJ","Hiroshima Airport","JP","","","HIJ","",2,34.36,132.42
"ap/HIK","HIK","Hickam Air Force Base","US","HI","","HNL","",9,21.33,-157.93
"ap/HIN","HIN","Sacheon Arpt","KR","","","HIN","",2,35.25,128.38
"ap/HIO","HIO","Portland Hillsboro Arpt","US","OR","","HIO","",9,45.53,-122.95
"ap/HIR","HIR","Henderson Intl Arpt","SB","","","HIR","",2,-9.41,160.05
"ap/HIS","HIS","Hayman Island Arpt","AU","QL","","HIS","QHF",2,-20.06,148.86
"ap/HJR","HJR","Khajuraho Arpt","IN","","","HJR","QHF",2,24.82,79.92
"ap/HKA","HKA","Blytheville Municipal Arpt","US","AR","","HKA","",9,35.93,-89.83
"ap/HKB","HKB","Healy Lake Arpt","US","AK","","HKB","",2,63.86,-148.96
"ap/HKD","HKD","Hakodate Arpt","JP","","","HKD","QHF",2,41.76,140.81
"ap/HKG","HKG","Hong Kong Intl","HK","","","HKG","",2,22.3,113.93
"ap/HKK","HKK","Hokitika Airport","NZ","","","HKK","",2,-42.71,170.96
"ap/HKN","HKN","Hoskins Arpt","PG","","","HKN","",2,-5.75,150.41
"ap/HKS","HKS","Hawkins Field","US","MS","","JAN","",9,32.33,-90.22
"ap/HKT","HKT","Phuket Intl Airport","TH","","","HKT","",2,8.11,98.3
"ap/HKY","HKY","Hickory Municipal","US","NC","","HKY","",9,35.74,-81.38
"ap/HLA","HLA","Lanseria Arpt","ZA","","","HLA","",9,-25.93,27.94
"ap/HLB","HLB","Hillenbrand","US","IN","","HLB","",9,39.25,-85.25
"ap/HLD","HLD","Hailer Arpt","CN","","","HLD","QHF",3,49.2,119.7
"ap/HLF","HLF","Hultsfred Arpt","SE","","","HLF","QHF",2,57.52,15.82
"ap/HLM","HLM","Park Township","US","MI","","HLM","",9,42.78,-86.11
"ap/HLN","HLN","Helena Municipal","US","MT","","HLN","",2,46.6,-111.99
"ap/HLP","HLP","Halim Perdana Kusuma Arpt","ID","","","JKT","",9,-6.24,106.9
"ap/HLS","HLS","St Helens Arpt","AU","TS","","HLS","QHF",9,-41,148.16
"ap/HLW","HLW","Hluhluwe Arpt","ZA","","","HLW","",9,-28.01,32.25
"ap/HLY","HLY","Holyhead Rail Station","GB","","","HLY","",6,53.31,-4.63
"ap/HLZ","HLZ","Hamilton Arpt","NZ","","","HLZ","",2,-37.86,175.33
"ap/HMA","HMA","Khanty Mansiysk Arpt","RU","","","HMA","QHF",3,61.01,69.08
"ap/HME","HME","Oued Irara Arpt","DZ","","","HME","QHF",2,31.67,6.14
"ap/HMO","HMO","Gen Ignacio Pesqueira Garcia Arpt","MX","","","HMO","",2,29.09,-111.04
"ap/HMR","HMR","Hamar Arpt","NO","","","HMR","",2,60.81,11.06
"ap/HMV","HMV","Hemavan Flyg","SE","","","HMV","QHF",2,65.8,15.08
"ap/HNA","HNA","Hanamaki Arpt","JP","","","HNA","QHF",2,39.42,141.13
"ap/HNB","HNB","Huntingburg Municipal","US","IN","","HNB","QHF",9,38.24,-86.95
"ap/HND","HND","Haneda Arpt","JP","","TYO","TYO","",2,35.54,139.76
"ap/HNH","HNH","Hoonah Municipal Arpt","US","AK","","HNH","",2,58.1,-135.43
"ap/HNL","HNL","Honolulu Intl","US","HI","","HNL","",2,21.33,-157.92
"ap/HNM","HNM","Hana Municipal","US","HI","","HNM","",2,20.79,-156.01
"ap/HNS","HNS","Haines Municipal Arpt","US","AK","","HNS","",2,59.24,-135.52
"ap/HNY","HNY","Hengyang Arpt","CN","","","HNY","",9,26.9,112.6
"ap/HOB","HOB","Lea County Arpt","US","NM","","HOB","",2,32.7,-103.13
"ap/HOD","HOD","Hodeidah Arpt","YE","","","HOD","QHF",3,14.74,42.98
"ap/HOF","HOF","Alahsa Arpt","SA","","","HOF","QHF",2,25.33,49.59
"ap/HOG","HOG","Frank Pias Arpt","CU","","","HOG","",2,20.86,-76.31
"ap/HOM","HOM","Homer Municipal Arpt","US","AK","","HOM","",2,59.64,-151.55
"ap/HON","HON","Huron Municipal","US","SD","","HON","",2,44.38,-98.22
"ap/HOP","HOP","Hopkinsville Christian Country Arpt","US","KY","","HOP","",9,36.85,-87.45
"ap/HOQ","HOQ","Hof Pirk Arpt","DE","","","HOQ","QHF",2,50.28,11.86
"ap/HOR","HOR","Horta Arpt","PT","","","HOR","",2,38.53,-28.61
"ap/HOT","HOT","Memorial Field","US","AR","","HOT","QHF",2,34.48,-93.09
"ap/HOU","HOU","Houston - Hobby airport","US","TX","QHO","HOU","",2,29.65,-95.27
"ap/HOV","HOV","Hovden Arpt","NO","","","HOV","",2,62.2,6.15
"ap/HPA","HPA","Salote Pilolevu Arpt","TO","","","HPA","",2,-19.81,-174.33
"ap/HPH","HPH","Catbi Arpt","VN","","","HPH","QHF",2,20.81,106.72
"ap/HPN","HPN","Westchester County Arpt","US","NY","","HPN","QHF",2,41.06,-73.71
"ap/HPR","HPR","Central Hpr Arpt","ZA","","","PRY","QHF",9,-25.65,28.15
"ap/HPV","HPV","Princeville Arpt","US","HI","","HPV","",9,22.21,-159.44
"ap/HRB","HRB","Harbin Arpt","CN","","","HRB","",2,46.01,126.58
"ap/HRE","HRE","Harare Arpt","ZW","","","HRE","QHF",2,-17.93,31.09
"ap/HRG","HRG","Hurghada Airport","EG","","","HRG","",2,27.18,33.8
"ap/HRK","HRK","Kharkov Arpt","UA","","","HRK","",2,49.91,36.34
"ap/HRL","HRL","Rio Grande Valley Intl Arpt","US","TX","","HRL","",2,26.22,-97.65
"ap/HRO","HRO","Boone County Arpt","US","AR","","HRO","",2,36.26,-93.15
"ap/HRS","HRS","Harrismith Arpt","ZA","","","HRS","QHF",9,-28.23,29.1
"ap/HRT","HRT","Linton On Ouse","GB","","","HRT","",2,54.05,-1.25
"ap/HRZ","HRZ","Horizontina Arpt","BR","","","HRZ","QHF",9,-27.63,-54.34
"ap/HSG","HSG","Saga Arpt","JP","","","HSG","QHF",2,33.14,130.3
"ap/HSH","HSH","Henderson Sky Harbor Arpt","US","NV","","LAS","",9,35.98,-115.13
"ap/HSI","HSI","Hastings Municipal","US","NE","","HSI","",9,40.6,-98.42
"ap/HSL","HSL","Huslia Arpt","US","AK","","HSL","QHF",2,65.7,-156.36
"ap/HSN","HSN","Zhoushan Arpt","CN","","","HSN","QHF",2,31.03,121.45
"ap/HSP","HSP","Ingalls Field","US","VA","","HSP","",9,37.95,-79.83
"ap/HST","HST","Homestead Municipal","US","FL","","HST","",9,25.48,-80.38
"ap/HSV","HSV","Huntsville Intl Arpt","US","AL","","HSV","",2,34.64,-86.77
"ap/HSZ","HSZ","Hsinchun Arpt","TW","","","HSZ","",9,24.81,120.93
"ap/HTA","HTA","Chita Arpt","RU","","","HTA","",2,52.03,113.3
"ap/HTF","HTF","Hatfield Arpt","GB","","","HTF","",9,53.6,-0.98
"ap/HTI","HTI","Hamilton Island Arpt","AU","QL","","HTI","QHF",2,-20.35,148.95
"ap/HTO","HTO","East Hampton Arpt","US","NY","","HTO","",9,40.95,-72.25
"ap/HTS","HTS","Tri State Milton Arpt","US","WV","","HTS","",2,38.36,-82.55
"ap/HTV","HTV","Huntsville Arpt","US","TX","","HTV","",9,30.74,-95.58
"ap/HUC","HUC","Humacao Arpt","US","PR","","HUC","",9,18.13,-65.81
"ap/HUF","HUF","Hulman Field","US","IN","","HUF","",9,39.45,-87.3
"ap/HUH","HUH","Huahine Arpt","PF","","","HUH","QHF",2,-16.68,-151.02
"ap/HUI","HUI","Phu Bai Arpt","VN","","","HUI","",2,16.4,107.68
"ap/HUM","HUM","Terrebonne Arpt","US","LA","","HUM","",9,29.58,-90.66
"ap/HUN","HUN","Hualien Arpt","TW","","","HUN","",2,24.02,121.44
"ap/HUS","HUS","Hughes Municipal Arpt","US","AK","","HUS","QHF",3,66.02,-154.25
"ap/HUT","HUT","Hutchinson Municipal","US","KS","","HUT","",9,38.05,-97.85
"ap/HUU","HUU","Huanuco Arpt","PE","","","HUU","",2,-9.87,-76.18
"ap/HUV","HUV","Hudiksvall Arpt","SE","","","HUV","",2,61.73,17.11
"ap/HUX","HUX","Bahia De Huatulco Arpt","MX","","","HUX","",2,15.77,-96.26
"ap/HUY","HUY","Humberside Arpt","GB","","","HUY","",2,53.57,-0.35
"ap/HUZ","HUZ","Huizhou Arpt","CN","","","HUZ","",3,23.08,114.36
"ap/HVB","HVB","Hervey Bay","AU","QL","","HVB","QHF",2,-25.32,152.88
"ap/HVE","HVE","Intermediate Arpt","US","UT","","HVE","",9,38.41,-110.7
"ap/HVG","HVG","Valan Arpt","NO","","","HVG","QHF",2,71,25.98
"ap/HVN","HVN","Tweed New Haven Arpt","US","CT","","HVN","",2,41.26,-72.89
"ap/HVR","HVR","City County","US","MT","","HVR","",2,48.55,-109.76
"ap/HWD","HWD","Hayward Air Terminal","US","CA","","HWD","",9,37.65,-122.12
"ap/HWN","HWN","Hwange Arpt","ZW","","","HWN","",9,-18.36,26.51
"ap/HYA","HYA","Barnstable Cty Arpt","US","MA","","HYA","",2,41.66,-70.28
"ap/HYD","HYD","Begumpet Arpt","IN","","","HYD","QHF",2,17.45,78.46
"ap/HYN","HYN","Huangyan Arpt","CN","","","HYN","",2,28.41,122.36
"ap/HYR","HYR","Hayward Municipal","US","WI","","HYR","",9,46.02,-91.43
"ap/HYS","HYS","Hays Municipal","US","KS","","HYS","",2,38.85,-99.27
"ap/HZK","HZK","Husavik Arpt","IS","","","HZK","QHF",9,65.95,-17.42
"ap/IAD","IAD","Washington - Dulles airport","US","DC","WAS","WAS","",2,38.95,-77.45
"ap/IAG","IAG","Niagara Falls Intl Arpt","US","NY","","IAG","",9,43.01,-79.03
"ap/IAH","IAH","Houston - Intercontinental airport","US","TX","QHO","HOU","",2,29.98,-95.34
"ap/IAR","IAR","Yaroslavl Arpt","RU","","","IAR","",9,57.56,39.86
"ap/IAS","IAS","Iasi Arpt","RO","","","IAS","QHF",2,47.18,27.6
"ap/IBZ","IBZ","Ibiza Airport","ES","","","IBZ","",2,38.87,1.37
"ap/ICN","ICN","Incheon Intl Arpt","KR","","","SEL","",2,37.42,126.37
"ap/ICT","ICT","Mid Continent Arpt","US","KS","","ICT","",2,37.65,-97.38
"ap/IDA","IDA","Fanning Field","US","ID","","IDA","",2,43.51,-112.06
"ap/IDI","IDI","Indiana County Arpt","US","PA","","IDI","",9,40.63,-79.15
"ap/IDR","IDR","Indore Arpt","IN","","","IDR","QHF",2,22.72,75.8
"ap/IEG","IEG","Babimost Arpt","PL","","","IEG","QHF",2,52.13,15.79
"ap/IEV","IEV","Zhulhany Arpt","UA","","","IEV","QHF",2,50.4,30.45
"ap/IFJ","IFJ","Isafjordur Arpt","IS","","","IFJ","",2,66.05,-23.13
"ap/IFN","IFN","Isfahan Arpt","IR","","","IFN","QHF",2,32.62,51.69
"ap/IFO","IFO","Ivano Frankovsk Arpt","UA","","","IFO","",2,48.88,24.68
"ap/IFP","IFP","Laughlin Bullhead Intl Arpt","US","AZ","","IFP","",2,35.16,-114.56
"ap/IGH","IGH","Ingham Arpt","AU","","","IGH","QHF",9,-18.8,146.1
"ap/IGL","IGL","Izmir Cigli Military","TR","","","IZM","",9,38.51,27
"ap/IGM","IGM","Mohave County","US","AZ","","IGM","",2,35.25,-113.95
"ap/IGR","IGR","Iguazu Intl","AR","","","IGR","",2,-25.68,-54.45
"ap/IGU","IGU","Cataratas Arpt","BR","","","IGU","QHF",2,-25.59,-54.48
"ap/IJK","IJK","Izhevsk Arpt","RU","","","IJK","",9,56.83,53.46
"ap/IJX","IJX","Jacksonville Municipal Arpt","US","IL","","IJX","",9,39.77,-90.23
"ap/IKA","IKA","Imam Khomeini Arpt","IR","","","THR","QHF",2,35.4,51.15
"ap/IKK","IKK","Greater Kankakee Arpt","US","IL","","IKK","",9,41.07,-87.84
"ap/IKT","IKT","Irkutsk Airport","RU","","","IKT","",2,52.5,104.33
"ap/ILE","ILE","Killeen Municipal","US","TX","","ILE","",2,31.15,-97.71
"ap/ILF","ILF","Ilford Rail Station","CA","MB","","ILF","",6,56.06,-95.58
"ap/ILG","ILG","Greater Wilmington New Castle","US","DE","","ILG","",9,39.67,-75.59
"ap/ILM","ILM","New Hanover Cty Arpt","US","NC","","ILM","",2,34.27,-77.9
"ap/ILO","ILO","Mandurriao Arpt","PH","","","ILO","QHF",2,10.71,122.54
"ap/ILP","ILP","Ile Des Pins Arpt","NC","","","ILP","",2,-22.58,167.44
"ap/ILY","ILY","Islay Arpt","GB","","","ILY","QHF",2,55.68,-6.25
"ap/ILZ","ILZ","Zilina Arpt","SK","","","ILZ","QHF",2,49.23,18.76
"ap/IMP","IMP","Imperatriz Arpt","BR","","","IMP","",2,-5.52,-47.47
"ap/IMT","IMT","Ford Arpt","US","MI","","IMT","",2,45.81,-88.11
"ap/INC","INC","Yinchuan Arpt","CN","","","INC","QHF",2,38.36,106.36
"ap/IND","IND","Indianapolis Intl Arpt","US","IN","","IND","",2,39.73,-86.27
"ap/INI","INI","Nis Arpt","RS","","","INI","QHF",3,43.33,21.85
"ap/INL","INL","Intl Falls Arpt","US","MN","","INL","",2,48.56,-93.39
"ap/INN","INN","Kranebitten Airport","AT","","","INN","",2,47.25,11.35
"ap/INT","INT","Smith Reynolds Arpt","US","NC","","INT","",2,36.13,-80.22
"ap/INU","INU","Nauru Intl Arpt","NR","","","INU","",2,-0.56,166.91
"ap/INV","INV","Inverness Arpt","GB","","","INV","",2,57.54,-4.05
"ap/INW","INW","Winslow Municipal","US","AZ","","INW","",9,35.02,-110.71
"ap/IOA","IOA","Ioannina Arpt","GR","","","IOA","",2,39.73,20.76
"ap/IOM","IOM","Ronaldsway Arpt","GB","","","IOM","",2,54.06,-4.6
"ap/IOS","IOS","Eduardo Gomes Airport","BR","","","IOS","",2,-14.81,-39.03
"ap/IOW","IOW","Iowa City Municipal Airport","US","IA","","IOW","QHF",9,41.63,-91.54
"ap/IPC","IPC","Mataveri Intl Arpt","CL","","","IPC","QHF",2,-27.15,-109.43
"ap/IPH","IPH","Ipoh Arpt","MY","","","IPH","",2,4.56,101.1
"ap/IPI","IPI","San Luis Arpt","CO","","","IPI","",2,0.86,-77.67
"ap/IPL","IPL","Imperial County","US","CA","","IPL","",2,32.83,-115.57
"ap/IPN","IPN","Usiminas Arpt","BR","","","IPN","",2,-19.5,-42.53
"ap/IPT","IPT","Williamsport Lycoming Municipal","US","PA","","IPT","",2,41.24,-76.91
"ap/IPW","IPW","Ipswitch Rail Station","GB","","","IPW","",6,52.05,1.15
